[
  {
    "name": "821 Flats",
    "type": "clinic",
    "category": "Health Clinic",
    "address": "821 Ezzard Charles Drive Cincinnati OH",
    "phone": null,
    "website": null,
    "lat": 39.10903,
    "lon": -84.528727,
    "source": "openstreetmap",
    "fqhc": false
  },
  {
    "name": "AIM for Wellbeing",
    "type": "clinic",
    "category": "Health Clinic",
    "address": null,
    "phone": null,
    "website": "https://myhealingpartner.com/",
    "lat": 39.20578,
    "lon": -84.368944,
    "source": "openstreetmap",
    "fqhc": false
  },
  {
    "name": "ARCpoint Labs of Florence",
    "type": "clinic",
    "category": "Health Clinic",
    "address": "8174 Mall Road Florence",
    "phone": "+1-859-495-0131",
    "website": "https://florence-ky.arcpointlabs.com/",
    "lat": 38.983103,
    "lon": -84.649349,
    "source": "openstreetmap",
    "fqhc": false
  },
  {
    "name": "Absolute Kinetics",
    "type": "clinic",
    "category": "Health Clinic",
    "address": "2716 Erie Avenue Cincinnati OH",
    "phone": null,
    "website": "https://www.absolutekineticspt.com/",
    "lat": 39.139968,
    "lon": -84.442423,
    "source": "openstreetmap",
    "fqhc": false
  },
  {
    "name": "Active Day of Cincinnati",
    "type": "clinic",
    "category": "Health Clinic",
    "address": null,
    "phone": null,
    "website": "http://www.seniorcarectrs.com/center/?lun=45",
    "lat": 39.228206,
    "lon": -84.393272,
    "source": "openstreetmap",
    "fqhc": false
  },
  {
    "name": "Advanced Pain & Spine Institute",
    "type": "clinic",
    "category": "Health Clinic",
    "address": null,
    "phone": null,
    "website": "http://apsiwellness.com/",
    "lat": 39.229787,
    "lon": -84.352843,
    "source": "openstreetmap",
    "fqhc": false
  },
  {
    "name": "Alternate Solutions HomeCare",
    "type": "clinic",
    "category": "Health Clinic",
    "address": null,
    "phone": null,
    "website": "https://ashomecare.com/",
    "lat": 39.253941,
    "lon": -84.386914,
    "source": "openstreetmap",
    "fqhc": false
  },
  {
    "name": "American Health Associates",
    "type": "clinic",
    "category": "Health Clinic",
    "address": "665 Ohio Pike Cincinnati OH",
    "phone": null,
    "website": null,
    "lat": 39.06457,
    "lon": -84.291186,
    "source": "openstreetmap",
    "fqhc": false
  },
  {
    "name": "America\u2019s Foot Center",
    "type": "clinic",
    "category": "Health Clinic",
    "address": "6th Avenue Dayton KY",
    "phone": "+1-859-757-8262",
    "website": null,
    "lat": 39.110818,
    "lon": -84.47697,
    "source": "openstreetmap",
    "fqhc": false
  },
  {
    "name": "Anderson Hill Pediatrics",
    "type": "clinic",
    "category": "Health Clinic",
    "address": "1126 West Ohio Pike Amelia OH",
    "phone": null,
    "website": "https://ahpediatrics.com/locations/amelia-office/",
    "lat": 39.053348,
    "lon": -84.254015,
    "source": "openstreetmap",
    "fqhc": false
  },
  {
    "name": "Angels in Training Childcare",
    "type": "clinic",
    "category": "Health Clinic",
    "address": null,
    "phone": "+1-859-653-0000",
    "website": null,
    "lat": 39.113641,
    "lon": -84.470187,
    "source": "openstreetmap",
    "fqhc": false
  },
  {
    "name": "Anna Louise Inn",
    "type": "clinic",
    "category": "Health Clinic",
    "address": "2401 Reading Road Cincinnati OH",
    "phone": null,
    "website": "https://hercincinnati.org/pages/anna-louise-inn-1",
    "lat": 39.125507,
    "lon": -84.502491,
    "source": "openstreetmap",
    "fqhc": false
  },
  {
    "name": "Anthology Senior Livng",
    "type": "clinic",
    "category": "Health Clinic",
    "address": null,
    "phone": null,
    "website": null,
    "lat": 39.297721,
    "lon": -84.317943,
    "source": "openstreetmap",
    "fqhc": false
  },
  {
    "name": "Any Lab Test Now",
    "type": "clinic",
    "category": "Health Clinic",
    "address": null,
    "phone": null,
    "website": null,
    "lat": 39.016803,
    "lon": -84.599549,
    "source": "openstreetmap",
    "fqhc": false
  },
  {
    "name": "Arbors at Milford",
    "type": "clinic",
    "category": "Health Clinic",
    "address": "5900 Meadow Creek Drive Milford OH",
    "phone": null,
    "website": "https://arborsatmilford.com/",
    "lat": 39.195305,
    "lon": -84.252543,
    "source": "openstreetmap",
    "fqhc": false
  },
  {
    "name": "Arc at Cincinnati",
    "type": "clinic",
    "category": "Health Clinic",
    "address": "4001 Rosslyn Drive Cincinnati OH",
    "phone": null,
    "website": "https://www.arcadialtc.com/arc-at-cincinnati",
    "lat": 39.152501,
    "lon": -84.409745,
    "source": "openstreetmap",
    "fqhc": false
  },
  {
    "name": "Arden Courts - ProMedica Memory Care Community (Anderson Twp.)",
    "type": "clinic",
    "category": "Health Clinic",
    "address": "6870 Clough Pike Cincinnati OH",
    "phone": "+1-513-233-0831",
    "website": "https://arden-courts.org/locations/arden-courts-promedica-memory-care-community-anderson-twp",
    "lat": 39.095685,
    "lon": -84.366939,
    "source": "openstreetmap",
    "fqhc": false
  },
  {
    "name": "Asbury Woods",
    "type": "clinic",
    "category": "Health Clinic",
    "address": "1149 Asbury Road Cincinnati OH",
    "phone": null,
    "website": "https://www.asburywoodsseniorapartments.com/",
    "lat": 39.070931,
    "lon": -84.344238,
    "source": "openstreetmap",
    "fqhc": false
  },
  {
    "name": "Athletico Physical Therapy",
    "type": "clinic",
    "category": "Health Clinic",
    "address": null,
    "phone": null,
    "website": null,
    "lat": 39.128324,
    "lon": -84.518414,
    "source": "openstreetmap",
    "fqhc": false
  },
  {
    "name": "Athletico Physical Therapy",
    "type": "clinic",
    "category": "Health Clinic",
    "address": "8315 Beechmont Avenue Cincinnati OH",
    "phone": null,
    "website": "https://www.athletico.com/locations/anderson-oh/",
    "lat": 39.071163,
    "lon": -84.324066,
    "source": "openstreetmap",
    "fqhc": false
  },
  {
    "name": "Athletico Physical Therapy",
    "type": "clinic",
    "category": "Health Clinic",
    "address": "732 Middleton Way Loveland OH",
    "phone": null,
    "website": null,
    "lat": 39.226675,
    "lon": -84.254459,
    "source": "openstreetmap",
    "fqhc": false
  },
  {
    "name": "Athletico Physical Therapy",
    "type": "clinic",
    "category": "Health Clinic",
    "address": "7215 Wooster Pike Columbia Township OH",
    "phone": null,
    "website": "https://www.athletico.com/locations/cincinnati-mariemont/",
    "lat": 39.143549,
    "lon": -84.366733,
    "source": "openstreetmap",
    "fqhc": false
  },
  {
    "name": "Balance in Motion",
    "type": "clinic",
    "category": "Health Clinic",
    "address": "1009 Lila Avenue Milford OH",
    "phone": null,
    "website": "https://balanceinmotionohio.com/",
    "lat": 39.174409,
    "lon": -84.274736,
    "source": "openstreetmap",
    "fqhc": false
  },
  {
    "name": "Barrington of Fort Thomas",
    "type": "clinic",
    "category": "Health Clinic",
    "address": null,
    "phone": null,
    "website": null,
    "lat": 39.071345,
    "lon": -84.464939,
    "source": "openstreetmap",
    "fqhc": false
  },
  {
    "name": "Barrington of Oakley",
    "type": "clinic",
    "category": "Health Clinic",
    "address": "4855 Babson Place Cincinnati OH",
    "phone": null,
    "website": "https://www.seniorlifestyle.com/property/barrington-of-oakley/",
    "lat": 39.159632,
    "lon": -84.408613,
    "source": "openstreetmap",
    "fqhc": false
  },
  {
    "name": "Be Concerned Food Bank",
    "type": "clinic",
    "category": "Health Clinic",
    "address": null,
    "phone": null,
    "website": null,
    "lat": 39.075612,
    "lon": -84.523296,
    "source": "openstreetmap",
    "fqhc": false
  },
  {
    "name": "Beacon Orthopaedic & Sports Medicine",
    "type": "clinic",
    "category": "Health Clinic",
    "address": "463 Ohio Pike Cincinnati OH",
    "phone": null,
    "website": null,
    "lat": 39.071026,
    "lon": -84.31007,
    "source": "openstreetmap",
    "fqhc": false
  },
  {
    "name": "Becoming Mom",
    "type": "clinic",
    "category": "Health Clinic",
    "address": "5485 Deerfield Boulevard Mason OH",
    "phone": null,
    "website": "https://www.becomingmomspa.com/",
    "lat": 39.306534,
    "lon": -84.318285,
    "source": "openstreetmap",
    "fqhc": false
  },
  {
    "name": "Bernstein Allergy Group",
    "type": "clinic",
    "category": "Health Clinic",
    "address": null,
    "phone": null,
    "website": "https://www.bernsteinallergyresearch.com/ag-home.html",
    "lat": 39.264116,
    "lon": -84.336342,
    "source": "openstreetmap",
    "fqhc": false
  },
  {
    "name": "Bernstein Allergy Group",
    "type": "clinic",
    "category": "Health Clinic",
    "address": "8444 Winton Road Cincinnati OH",
    "phone": "+1-513-931-0775",
    "website": "https://www.bernsteinallergyresearch.com/clinic/",
    "lat": 39.220911,
    "lon": -84.517369,
    "source": "openstreetmap",
    "fqhc": false
  },
  {
    "name": "Berri Eyecare",
    "type": "clinic",
    "category": "Health Clinic",
    "address": null,
    "phone": null,
    "website": "https://berrieyecare-visionsource.com/",
    "lat": 39.254273,
    "lon": -84.296436,
    "source": "openstreetmap",
    "fqhc": false
  },
  {
    "name": "Bethesda Home for the Aged",
    "type": "clinic",
    "category": "Health Clinic",
    "address": null,
    "phone": null,
    "website": null,
    "lat": 39.157178,
    "lon": -84.525565,
    "source": "openstreetmap",
    "fqhc": false
  },
  {
    "name": "Bethesda Orthopedic Surgery Center",
    "type": "clinic",
    "category": "Health Clinic",
    "address": null,
    "phone": null,
    "website": "https://www.trihealth.com/hospitals-and-practices/bethesda-surgery-center/",
    "lat": 39.254385,
    "lon": -84.344009,
    "source": "openstreetmap",
    "fqhc": false
  },
  {
    "name": "Beyond Exercize",
    "type": "clinic",
    "category": "Health Clinic",
    "address": "5812 Madison Road Cincinnati OH",
    "phone": null,
    "website": "https://www.gobeyondexercise.com/",
    "lat": 39.161075,
    "lon": -84.39372,
    "source": "openstreetmap",
    "fqhc": false
  },
  {
    "name": "Bobbie Sterne Health Center",
    "type": "clinic",
    "category": "Health Clinic",
    "address": "1525 Elm Street Cincinnati OH",
    "phone": null,
    "website": null,
    "lat": 39.112131,
    "lon": -84.519663,
    "source": "openstreetmap",
    "fqhc": false
  },
  {
    "name": "Bond Hill Food Pantry",
    "type": "clinic",
    "category": "Health Clinic",
    "address": "1626 Anita Place Cincinnati OH",
    "phone": null,
    "website": null,
    "lat": 39.175293,
    "lon": -84.469465,
    "source": "openstreetmap",
    "fqhc": false
  },
  {
    "name": "Boys & Girls Club",
    "type": "clinic",
    "category": "Health Clinic",
    "address": null,
    "phone": null,
    "website": null,
    "lat": 39.05886,
    "lon": -84.504604,
    "source": "openstreetmap",
    "fqhc": false
  },
  {
    "name": "BrightView",
    "type": "clinic",
    "category": "Health Clinic",
    "address": "446 Morgan Street Cincinnati OH",
    "phone": null,
    "website": "https://brightviewhealth.com/locations/cincinnati-addiction-treatment-center/",
    "lat": 39.125346,
    "lon": -84.499629,
    "source": "openstreetmap",
    "fqhc": false
  },
  {
    "name": "Brookdale Kenwood",
    "type": "clinic",
    "category": "Health Clinic",
    "address": null,
    "phone": null,
    "website": "https://www.brookdale.com/communities/brookdale-place-at-kenwood/",
    "lat": 39.220739,
    "lon": -84.356241,
    "source": "openstreetmap",
    "fqhc": false
  },
  {
    "name": "Camp Cupboard and Closet",
    "type": "clinic",
    "category": "Health Clinic",
    "address": "Sidney Avenue Cincinnati OH",
    "phone": null,
    "website": "https://www.washingtonucc.org/camp-cupboard-and-closet",
    "lat": 39.136138,
    "lon": -84.535055,
    "source": "openstreetmap",
    "fqhc": false
  },
  {
    "name": "Campbell County Health Center",
    "type": "clinic",
    "category": "Health Clinic",
    "address": "1098 Monmouth Street Newport KY",
    "phone": "+1-859-431-1704",
    "website": "https://www.nkyhealth.org/",
    "lat": 39.086192,
    "lon": -84.4879,
    "source": "openstreetmap",
    "fqhc": false
  },
  {
    "name": "CareFirst Urgent Care",
    "type": "clinic",
    "category": "Health Clinic",
    "address": null,
    "phone": null,
    "website": "https://carefirsturgentcares.com/locationshours/#Locations-6",
    "lat": 39.251891,
    "lon": -84.295179,
    "source": "openstreetmap",
    "fqhc": false
  },
  {
    "name": "CareFirst Urgent Care",
    "type": "clinic",
    "category": "Health Clinic",
    "address": "3802 Paxton Avenue Cincinnati OH",
    "phone": null,
    "website": null,
    "lat": 39.146163,
    "lon": -84.428841,
    "source": "openstreetmap",
    "fqhc": false
  },
  {
    "name": "CareFirst Urgent Care",
    "type": "clinic",
    "category": "Health Clinic",
    "address": "4530 Eastgate Boulevard Cincinnati OH",
    "phone": "+1-513-752-1999",
    "website": "https://www.carefirsturgentcares.com/check-in?location=eastgate-rapid-testing-available-cincinnati-ohio",
    "lat": 39.102205,
    "lon": -84.271363,
    "source": "openstreetmap",
    "fqhc": false
  },
  {
    "name": "CareFirst Urgent Care",
    "type": "clinic",
    "category": "Health Clinic",
    "address": null,
    "phone": null,
    "website": null,
    "lat": 39.028375,
    "lon": -84.618487,
    "source": "openstreetmap",
    "fqhc": false
  },
  {
    "name": "CareFirst Urgent Care - Delhi",
    "type": "clinic",
    "category": "Health Clinic",
    "address": null,
    "phone": null,
    "website": null,
    "lat": 39.095706,
    "lon": -84.605969,
    "source": "openstreetmap",
    "fqhc": false
  },
  {
    "name": "Carespring",
    "type": "clinic",
    "category": "Health Clinic",
    "address": null,
    "phone": null,
    "website": null,
    "lat": 39.070171,
    "lon": -84.464823,
    "source": "openstreetmap",
    "fqhc": false
  },
  {
    "name": "Caresprings Healthcare Center",
    "type": "clinic",
    "category": "Health Clinic",
    "address": "4400 Glen Este-Whithamsville Road Cincinnati OH",
    "phone": null,
    "website": null,
    "lat": 39.09344,
    "lon": -84.261169,
    "source": "openstreetmap",
    "fqhc": false
  },
  {
    "name": "Cedar Village",
    "type": "clinic",
    "category": "Health Clinic",
    "address": "5467 Cedar Village Drive Mason OH",
    "phone": "+1-513-754-3100",
    "website": "https://cedarvillage.org/",
    "lat": 39.327631,
    "lon": -84.320786,
    "source": "openstreetmap",
    "fqhc": false
  },
  {
    "name": "Cedar Village",
    "type": "clinic",
    "category": "Health Clinic",
    "address": null,
    "phone": null,
    "website": null,
    "lat": 39.326608,
    "lon": -84.321247,
    "source": "openstreetmap",
    "fqhc": false
  },
  {
    "name": "Children\u2019s Home of Northern Kentucky Devou Park Campus",
    "type": "clinic",
    "category": "Health Clinic",
    "address": null,
    "phone": null,
    "website": "https://www.chnk.org/",
    "lat": 39.085716,
    "lon": -84.539377,
    "source": "openstreetmap",
    "fqhc": false
  },
  {
    "name": "Christ Hospital Testing Center",
    "type": "clinic",
    "category": "Health Clinic",
    "address": "7545 Beechmont Avenue Cincinnati OH",
    "phone": null,
    "website": null,
    "lat": 39.071994,
    "lon": -84.348494,
    "source": "openstreetmap",
    "fqhc": false
  },
  {
    "name": "Cincinnati Aviation Medicine",
    "type": "clinic",
    "category": "Health Clinic",
    "address": "3020 Burnet Avenue Cincinnati OH",
    "phone": "+1 513-751-0080",
    "website": null,
    "lat": 39.13419,
    "lon": -84.50091,
    "source": "openstreetmap",
    "fqhc": false
  },
  {
    "name": "Cincinnati Children's Eden Park",
    "type": "clinic",
    "category": "Health Clinic",
    "address": "2001 Gilbert Avenue Cincinnati OH",
    "phone": null,
    "website": "https://www.cincinnatichildrens.org/locations/eden-park",
    "lat": 39.117588,
    "lon": -84.497327,
    "source": "openstreetmap",
    "fqhc": false
  },
  {
    "name": "Cincinnati Children\u2019s Drake",
    "type": "clinic",
    "category": "Health Clinic",
    "address": null,
    "phone": null,
    "website": "https://www.cincinnatichildrens.org/patients/visit/directions/neighborhood/locations/drake/",
    "lat": 39.212473,
    "lon": -84.481181,
    "source": "openstreetmap",
    "fqhc": false
  },
  {
    "name": "Cincinnati Children\u2019s Hospital Outpatient",
    "type": "clinic",
    "category": "Health Clinic",
    "address": "9560 Childrens Drive Mason",
    "phone": "+1-513-636-6800",
    "website": "https://www.cincinnatichildrens.org/patients/visit/directions/locations/mason",
    "lat": 39.29946,
    "lon": -84.309735,
    "source": "openstreetmap",
    "fqhc": false
  },
  {
    "name": "Cincinnati SportsMedicine & Orthopaedic Center",
    "type": "clinic",
    "category": "Health Clinic",
    "address": null,
    "phone": null,
    "website": "https://www.cincinnatisportsmed.com/",
    "lat": 39.255508,
    "lon": -84.344073,
    "source": "openstreetmap",
    "fqhc": false
  },
  {
    "name": "CityLink Center",
    "type": "clinic",
    "category": "Health Clinic",
    "address": "800 Bank Street Cincinnati OH",
    "phone": null,
    "website": "https://www.citylinkcenter.org/",
    "lat": 39.119861,
    "lon": -84.527652,
    "source": "openstreetmap",
    "fqhc": false
  },
  {
    "name": "Clarkson Eyecare",
    "type": "clinic",
    "category": "Health Clinic",
    "address": "9525 Kenwood Road Blue Ash OH",
    "phone": null,
    "website": "https://www.clarksoneyecare.com/locations/oh/cincinnati/blueash/",
    "lat": 39.231036,
    "lon": -84.378574,
    "source": "openstreetmap",
    "fqhc": false
  },
  {
    "name": "Clarkson Eyecare",
    "type": "clinic",
    "category": "Health Clinic",
    "address": null,
    "phone": null,
    "website": "https://www.clarksoneyecare.com/locations/oh/loveland/",
    "lat": 39.251236,
    "lon": -84.295408,
    "source": "openstreetmap",
    "fqhc": false
  },
  {
    "name": "Clarkson Eyecare",
    "type": "clinic",
    "category": "Health Clinic",
    "address": null,
    "phone": null,
    "website": null,
    "lat": 39.037055,
    "lon": -84.5605,
    "source": "openstreetmap",
    "fqhc": false
  },
  {
    "name": "Clarkson Eyecare",
    "type": "clinic",
    "category": "Health Clinic",
    "address": "3978 Alexandria Pike Cold Spring KY",
    "phone": "+1-859-441-8500",
    "website": "https://www.clarksoneyecare.com/locations/ky/cold-spring/cold-spring",
    "lat": 39.023553,
    "lon": -84.442837,
    "source": "openstreetmap",
    "fqhc": false
  },
  {
    "name": "Clarkson Eyecare",
    "type": "clinic",
    "category": "Health Clinic",
    "address": "8548 Beechmont Avenue Cincinnati OH",
    "phone": null,
    "website": null,
    "lat": 39.072497,
    "lon": -84.3175,
    "source": "openstreetmap",
    "fqhc": false
  },
  {
    "name": "Clarkson Eyecare",
    "type": "clinic",
    "category": "Health Clinic",
    "address": "3308 Jefferson Avenue Cincinnati OH",
    "phone": null,
    "website": null,
    "lat": 39.141183,
    "lon": -84.513566,
    "source": "openstreetmap",
    "fqhc": false
  },
  {
    "name": "Clarkson Eyecare",
    "type": "clinic",
    "category": "Health Clinic",
    "address": "7437 Wooster Pike Columbia Township OH",
    "phone": null,
    "website": "https://www.clarksoneyecare.com/locations/oh/cincinnati/mariemont",
    "lat": 39.141033,
    "lon": -84.359742,
    "source": "openstreetmap",
    "fqhc": false
  },
  {
    "name": "Clovernook Home",
    "type": "clinic",
    "category": "Health Clinic",
    "address": null,
    "phone": null,
    "website": "https://clovernook.org/",
    "lat": 39.220351,
    "lon": -84.547533,
    "source": "openstreetmap",
    "fqhc": false
  },
  {
    "name": "Coldspring Transitional Care Center",
    "type": "clinic",
    "category": "Health Clinic",
    "address": "300 Plaza Drive Cold Spring KY",
    "phone": "+1-859-441-4600",
    "website": "https://www.carespring.com/coldspring-of-campbell-county/",
    "lat": 39.003066,
    "lon": -84.427368,
    "source": "openstreetmap",
    "fqhc": false
  },
  {
    "name": "Colerain Senior Center",
    "type": "clinic",
    "category": "Health Clinic",
    "address": "4300 Springdale Road",
    "phone": null,
    "website": "https://www.colerain.org/192/Senior-Community-Center",
    "lat": 39.245822,
    "lon": -84.611576,
    "source": "openstreetmap",
    "fqhc": false
  },
  {
    "name": "Cornerstone Integrated Health",
    "type": "clinic",
    "category": "Health Clinic",
    "address": "24 Compton Road Cincinnati OH",
    "phone": "+1-513-790-7605",
    "website": "https://thecornerstonehealth.com/",
    "lat": 39.216149,
    "lon": -84.475159,
    "source": "openstreetmap",
    "fqhc": false
  },
  {
    "name": "Crossroad Health Center",
    "type": "clinic",
    "category": "Health Clinic",
    "address": "5 East Liberty Street Cincinnati OH",
    "phone": "+1 513-381-2247",
    "website": "https://www.crossroadhc.org/",
    "lat": 39.112558,
    "lon": -84.51553,
    "source": "openstreetmap",
    "fqhc": false
  },
  {
    "name": "DCCH Center for Children and Families",
    "type": "clinic",
    "category": "Health Clinic",
    "address": "KY",
    "phone": null,
    "website": "https://www.dcchcenter.org/",
    "lat": 39.029804,
    "lon": -84.552429,
    "source": "openstreetmap",
    "fqhc": false
  },
  {
    "name": "DaVita Dialysis",
    "type": "clinic",
    "category": "Health Clinic",
    "address": null,
    "phone": null,
    "website": null,
    "lat": 39.202534,
    "lon": -84.520019,
    "source": "openstreetmap",
    "fqhc": false
  },
  {
    "name": "DaVita Kidney Care",
    "type": "clinic",
    "category": "Health Clinic",
    "address": null,
    "phone": null,
    "website": null,
    "lat": 39.003746,
    "lon": -84.426021,
    "source": "openstreetmap",
    "fqhc": false
  },
  {
    "name": "Deerfield Commons Retirement Community",
    "type": "clinic",
    "category": "Health Clinic",
    "address": null,
    "phone": null,
    "website": null,
    "lat": 39.350482,
    "lon": -84.318685,
    "source": "openstreetmap",
    "fqhc": false
  },
  {
    "name": "Deerfield Springs Retirement Resort",
    "type": "clinic",
    "category": "Health Clinic",
    "address": null,
    "phone": null,
    "website": "https://rlcommunities.com/ohio/deerfield-springs-retirement/",
    "lat": 39.299267,
    "lon": -84.289236,
    "source": "openstreetmap",
    "fqhc": false
  },
  {
    "name": "Delhi Internal Medicine",
    "type": "clinic",
    "category": "Health Clinic",
    "address": "494 Neeb Road",
    "phone": null,
    "website": null,
    "lat": 39.100344,
    "lon": -84.636124,
    "source": "openstreetmap",
    "fqhc": false
  },
  {
    "name": "Deupree House",
    "type": "clinic",
    "category": "Health Clinic",
    "address": "3939 Erie Avenue Cincinnati OH",
    "phone": "+1-513-561-4200",
    "website": "https://www.episcopalretirement.com/communities/deupree-house",
    "lat": 39.148298,
    "lon": -84.407422,
    "source": "openstreetmap",
    "fqhc": false
  },
  {
    "name": "Dixie Urgent Care",
    "type": "clinic",
    "category": "Health Clinic",
    "address": null,
    "phone": null,
    "website": null,
    "lat": 39.33602,
    "lon": -84.527037,
    "source": "openstreetmap",
    "fqhc": false
  },
  {
    "name": "Doctor Luke Fullenkamp Optometrist",
    "type": "clinic",
    "category": "Health Clinic",
    "address": "11711 Princeton Pike Cincinnati OH",
    "phone": "+1-513-671-0933",
    "website": "https://www.drlukefullenkamp.com",
    "lat": 39.289156,
    "lon": -84.467333,
    "source": "openstreetmap",
    "fqhc": false
  },
  {
    "name": "Doctors Urgent Care Office",
    "type": "clinic",
    "category": "Health Clinic",
    "address": "935 Business State Route 28 Milford OH",
    "phone": null,
    "website": null,
    "lat": 39.191263,
    "lon": -84.251117,
    "source": "openstreetmap",
    "fqhc": false
  },
  {
    "name": "Doctors Urgent Care Office",
    "type": "clinic",
    "category": "Health Clinic",
    "address": "846 State Route 28 Milford OH",
    "phone": null,
    "website": null,
    "lat": 39.189345,
    "lon": -84.259837,
    "source": "openstreetmap",
    "fqhc": false
  },
  {
    "name": "Dr. Frederick Steinbeck Oral and Maxillofacial Surgery",
    "type": "clinic",
    "category": "Health Clinic",
    "address": "627 Highland Avenue Fort Thomas KY",
    "phone": null,
    "website": null,
    "lat": 39.076419,
    "lon": -84.460549,
    "source": "openstreetmap",
    "fqhc": false
  },
  {
    "name": "ESD Pediatric Group",
    "type": "clinic",
    "category": "Health Clinic",
    "address": "905 Main Street Milford OH",
    "phone": "+1-513-248-1210",
    "website": "https://esdpeds.com/",
    "lat": 39.178318,
    "lon": -84.280328,
    "source": "openstreetmap",
    "fqhc": false
  },
  {
    "name": "Eastside Urgent Care",
    "type": "clinic",
    "category": "Health Clinic",
    "address": "872 Ohio Pike Cincinnati OH",
    "phone": null,
    "website": "https://www.esurgentcare.com/",
    "lat": 39.063196,
    "lon": -84.274686,
    "source": "openstreetmap",
    "fqhc": false
  },
  {
    "name": "Edgewood Senior Center",
    "type": "clinic",
    "category": "Health Clinic",
    "address": "550 Edgewood KY",
    "phone": null,
    "website": null,
    "lat": 39.009784,
    "lon": -84.556968,
    "source": "openstreetmap",
    "fqhc": false
  },
  {
    "name": "Encompass Health Rehabilitation Hospital of Cincinnati at Norwood",
    "type": "clinic",
    "category": "Health Clinic",
    "address": "4953 Section Avenue Cincinnati OH",
    "phone": "+1 513 712 9200",
    "website": "https://encompasshealth.com/locations/cincinnatirehab-norwood",
    "lat": 39.167154,
    "lon": -84.460617,
    "source": "openstreetmap",
    "fqhc": false
  },
  {
    "name": "Encompass Health Rehabilitation Hospital of Northern Kentucky",
    "type": "clinic",
    "category": "Health Clinic",
    "address": "201 Medical Village Drive Edgewood KY",
    "phone": null,
    "website": "https://www.encompasshealth.com/kentuckyrehab",
    "lat": 39.012474,
    "lon": -84.56683,
    "source": "openstreetmap",
    "fqhc": false
  },
  {
    "name": "Family Allergy & Asthma",
    "type": "clinic",
    "category": "Health Clinic",
    "address": null,
    "phone": null,
    "website": null,
    "lat": 39.01382,
    "lon": -84.640788,
    "source": "openstreetmap",
    "fqhc": false
  },
  {
    "name": "Fields of Florence",
    "type": "clinic",
    "category": "Health Clinic",
    "address": "212 Main Street Florence KY",
    "phone": null,
    "website": "https://fieldsofflorenceseniorliving.com/",
    "lat": 39.004401,
    "lon": -84.623642,
    "source": "openstreetmap",
    "fqhc": false
  },
  {
    "name": "First Aid",
    "type": "clinic",
    "category": "Health Clinic",
    "address": null,
    "phone": null,
    "website": null,
    "lat": 39.343446,
    "lon": -84.26876,
    "source": "openstreetmap",
    "fqhc": false
  },
  {
    "name": "First Aid",
    "type": "clinic",
    "category": "Health Clinic",
    "address": null,
    "phone": null,
    "website": null,
    "lat": 39.34018,
    "lon": -84.273204,
    "source": "openstreetmap",
    "fqhc": false
  },
  {
    "name": "Florence Senior Activity Center",
    "type": "clinic",
    "category": "Health Clinic",
    "address": null,
    "phone": null,
    "website": "https://www.florence-ky.gov/residents/senior_center.php",
    "lat": 38.994565,
    "lon": -84.631319,
    "source": "openstreetmap",
    "fqhc": false
  },
  {
    "name": "Forest Hills Healthcare Center",
    "type": "clinic",
    "category": "Health Clinic",
    "address": "8700 Moran Road Cincinnati OH",
    "phone": null,
    "website": "https://communicarehealth.com/location/forest-hills-healthcare-center/",
    "lat": 39.114868,
    "lon": -84.308469,
    "source": "openstreetmap",
    "fqhc": false
  },
  {
    "name": "Freestore Foodbank",
    "type": "clinic",
    "category": "Health Clinic",
    "address": "3401 Rosenthal Way Cincinnati OH",
    "phone": null,
    "website": "https://freestorefoodbank.org/",
    "lat": 39.084117,
    "lon": -84.579494,
    "source": "openstreetmap",
    "fqhc": false
  },
  {
    "name": "Fresenius Kidney Care",
    "type": "clinic",
    "category": "Health Clinic",
    "address": "5890 Meadow Creek Drive Milford OH",
    "phone": null,
    "website": null,
    "lat": 39.195033,
    "lon": -84.254195,
    "source": "openstreetmap",
    "fqhc": false
  },
  {
    "name": "Fyzical Therapy and Balance",
    "type": "clinic",
    "category": "Health Clinic",
    "address": "784 Loveland-Miamiville Road Loveland OH",
    "phone": null,
    "website": null,
    "lat": 39.229373,
    "lon": -84.258493,
    "source": "openstreetmap",
    "fqhc": false
  },
  {
    "name": "Good Samaritan Glenway",
    "type": "clinic",
    "category": "Health Clinic",
    "address": "6350 Glenway Avenue Cincinnati",
    "phone": null,
    "website": "https://www.trihealth.com/hospitals-and-practices/good-samaritan-outpatient-center-glenway",
    "lat": 39.148545,
    "lon": -84.626248,
    "source": "openstreetmap",
    "fqhc": false
  },
  {
    "name": "Good Samaritan Infusion Center - Anderson",
    "type": "clinic",
    "category": "Health Clinic",
    "address": "7777 Beechmont Avenue Cincinnati OH",
    "phone": "+1-513-752-3376",
    "website": null,
    "lat": 39.071474,
    "lon": -84.343262,
    "source": "openstreetmap",
    "fqhc": false
  },
  {
    "name": "Greater Cincinnati Homeless Coalition",
    "type": "clinic",
    "category": "Health Clinic",
    "address": "117 East 12th Street Cincinnati OH",
    "phone": "+1 513-421-7803",
    "website": "https://cincihomeless.org/",
    "lat": 39.108525,
    "lon": -84.51256,
    "source": "openstreetmap",
    "fqhc": false
  },
  {
    "name": "Greater Cincinnati Pain Management Centers",
    "type": "clinic",
    "category": "Health Clinic",
    "address": null,
    "phone": null,
    "website": "http://www.cincinnatipain.com/",
    "lat": 39.226203,
    "lon": -84.392988,
    "source": "openstreetmap",
    "fqhc": false
  },
  {
    "name": "Group Health Associates",
    "type": "clinic",
    "category": "Health Clinic",
    "address": null,
    "phone": null,
    "website": null,
    "lat": 39.305964,
    "lon": -84.278216,
    "source": "openstreetmap",
    "fqhc": false
  },
  {
    "name": "Harkavy Hall",
    "type": "clinic",
    "category": "Health Clinic",
    "address": "24 West 12th Street Cincinnati OH",
    "phone": null,
    "website": null,
    "lat": 39.108347,
    "lon": -84.515769,
    "source": "openstreetmap",
    "fqhc": false
  },
  {
    "name": "Health First Physicians",
    "type": "clinic",
    "category": "Health Clinic",
    "address": "10675 Loveland Madeira Road Loveland OH",
    "phone": null,
    "website": "https://www.trihealth.com/hospitals-and-practices/health-first-physicians/locations/loveland/",
    "lat": 39.254691,
    "lon": -84.296019,
    "source": "openstreetmap",
    "fqhc": false
  },
  {
    "name": "Hometown Urgent Care",
    "type": "clinic",
    "category": "Health Clinic",
    "address": null,
    "phone": null,
    "website": null,
    "lat": 39.224531,
    "lon": -84.588211,
    "source": "openstreetmap",
    "fqhc": false
  },
  {
    "name": "Hoxworth Blood Center",
    "type": "clinic",
    "category": "Health Clinic",
    "address": "9708 Kenwood Road Cincinnati OH",
    "phone": null,
    "website": "https://www.hoxworth.org/donors/locations/blue-ash.html",
    "lat": 39.234971,
    "lon": -84.376138,
    "source": "openstreetmap",
    "fqhc": false
  },
  {
    "name": "Hoxworth Blood Center",
    "type": "clinic",
    "category": "Health Clinic",
    "address": null,
    "phone": null,
    "website": "https://hoxworth.org/donors/locations/west.html",
    "lat": 39.146792,
    "lon": -84.627426,
    "source": "openstreetmap",
    "fqhc": false
  },
  {
    "name": "Hyde Park Cranio Sacral Therapy",
    "type": "clinic",
    "category": "Health Clinic",
    "address": "2730 Observatory Avenue Cincinnati OH",
    "phone": "+1-513-575-6396",
    "website": "http://www.hydeparkcraniosacraltherapy.com/",
    "lat": 39.137684,
    "lon": -84.442118,
    "source": "openstreetmap",
    "fqhc": false
  },
  {
    "name": "Indianspring of Oakley",
    "type": "clinic",
    "category": "Health Clinic",
    "address": "4900 Babson Place Cincinnati OH",
    "phone": null,
    "website": "https://www.carespring.com/facility/indianspring/",
    "lat": 39.160859,
    "lon": -84.406689,
    "source": "openstreetmap",
    "fqhc": false
  },
  {
    "name": "Injury Care Center",
    "type": "clinic",
    "category": "Health Clinic",
    "address": null,
    "phone": null,
    "website": null,
    "lat": 39.018857,
    "lon": -84.592474,
    "source": "openstreetmap",
    "fqhc": false
  },
  {
    "name": "Internal Medicine of Blue Ash",
    "type": "clinic",
    "category": "Health Clinic",
    "address": null,
    "phone": null,
    "website": "http://www.internalmedicineofblueash.com/",
    "lat": 39.226946,
    "lon": -84.377049,
    "source": "openstreetmap",
    "fqhc": false
  },
  {
    "name": "Ivy Pointe Senior Apartments",
    "type": "clinic",
    "category": "Health Clinic",
    "address": null,
    "phone": null,
    "website": "https://oneclover.com/senior-apartments/ivy-pointe-senior-apartments/",
    "lat": 39.085459,
    "lon": -84.28483,
    "source": "openstreetmap",
    "fqhc": false
  },
  {
    "name": "Jewish Family Service",
    "type": "clinic",
    "category": "Health Clinic",
    "address": "8487 Ridge Road Amberley Village",
    "phone": null,
    "website": "https://www.jfscinti.org/",
    "lat": 39.21549,
    "lon": -84.429102,
    "source": "openstreetmap",
    "fqhc": false
  },
  {
    "name": "Johnson Orthodontics",
    "type": "clinic",
    "category": "Health Clinic",
    "address": "6499 Mason Montgomery Mason OH",
    "phone": null,
    "website": "https://www.johnson-orthodontics.com/",
    "lat": 39.345742,
    "lon": -84.310898,
    "source": "openstreetmap",
    "fqhc": false
  },
  {
    "name": "LIFE Loveland Food Pantry",
    "type": "clinic",
    "category": "Health Clinic",
    "address": null,
    "phone": null,
    "website": null,
    "lat": 39.263899,
    "lon": -84.267594,
    "source": "openstreetmap",
    "fqhc": false
  },
  {
    "name": "LX Medical Services",
    "type": "clinic",
    "category": "Health Clinic",
    "address": "4439 Mount Carmel Tobasco Road Cincinnati OH",
    "phone": "+1-513-519-1945",
    "website": "http://www.langxray.com/",
    "lat": 39.098631,
    "lon": -84.300477,
    "source": "openstreetmap",
    "fqhc": false
  },
  {
    "name": "Liberty Dialysis",
    "type": "clinic",
    "category": "Health Clinic",
    "address": "1198 West Kemper Road Forest Park",
    "phone": null,
    "website": null,
    "lat": 39.289854,
    "lon": -84.522632,
    "source": "openstreetmap",
    "fqhc": false
  },
  {
    "name": "Liberty Nursing Center of Colerain",
    "type": "clinic",
    "category": "Health Clinic",
    "address": null,
    "phone": null,
    "website": null,
    "lat": 39.226088,
    "lon": -84.611815,
    "source": "openstreetmap",
    "fqhc": false
  },
  {
    "name": "Liberty Sharonville Pediatrics",
    "type": "clinic",
    "category": "Health Clinic",
    "address": "11256 Lebanon Road Cincinnati OH",
    "phone": null,
    "website": null,
    "lat": 39.274184,
    "lon": -84.409438,
    "source": "openstreetmap",
    "fqhc": false
  },
  {
    "name": "Liberty Street Market",
    "type": "clinic",
    "category": "Health Clinic",
    "address": "112 East Liberty Street Cincinnati OH",
    "phone": null,
    "website": "https://freestorefoodbank.org/liberty-street-market/",
    "lat": 39.112888,
    "lon": -84.513673,
    "source": "openstreetmap",
    "fqhc": false
  },
  {
    "name": "Lincoln Heights Health Center",
    "type": "clinic",
    "category": "Health Clinic",
    "address": null,
    "phone": null,
    "website": null,
    "lat": 39.238838,
    "lon": -84.452496,
    "source": "openstreetmap",
    "fqhc": false
  },
  {
    "name": "Loveland Family Medicine",
    "type": "clinic",
    "category": "Health Clinic",
    "address": null,
    "phone": null,
    "website": "https://www.trihealth.com/hospitals-and-practices/loveland-family-medicine",
    "lat": 39.26855,
    "lon": -84.262398,
    "source": "openstreetmap",
    "fqhc": false
  },
  {
    "name": "Loveland Health Care Nursing & Rehab Center",
    "type": "clinic",
    "category": "Health Clinic",
    "address": "501 North 2nd Street Loveland OH",
    "phone": null,
    "website": "https://www.hcmg.com/Facilities/Loveland-Health-Care-Nursing-And-Rehab-Center.aspx",
    "lat": 39.273332,
    "lon": -84.251741,
    "source": "openstreetmap",
    "fqhc": false
  },
  {
    "name": "Loveland LIFE Food Pantry",
    "type": "clinic",
    "category": "Health Clinic",
    "address": null,
    "phone": "+1-513-583-8222",
    "website": "https://www.lovelandlifefoodpantry.org/",
    "lat": 39.270652,
    "lon": -84.283486,
    "source": "openstreetmap",
    "fqhc": false
  },
  {
    "name": "Ludlow Primary Care",
    "type": "clinic",
    "category": "Health Clinic",
    "address": null,
    "phone": null,
    "website": null,
    "lat": 39.094568,
    "lon": -84.546382,
    "source": "openstreetmap",
    "fqhc": false
  },
  {
    "name": "MED+ Urgent Care",
    "type": "clinic",
    "category": "Health Clinic",
    "address": null,
    "phone": null,
    "website": "https://medplusurgentcare.com/",
    "lat": 39.229613,
    "lon": -84.353744,
    "source": "openstreetmap",
    "fqhc": false
  },
  {
    "name": "Madonna Manor",
    "type": "clinic",
    "category": "Health Clinic",
    "address": null,
    "phone": null,
    "website": null,
    "lat": 39.067228,
    "lon": -84.587587,
    "source": "openstreetmap",
    "fqhc": false
  },
  {
    "name": "Madonna Manor",
    "type": "clinic",
    "category": "Health Clinic",
    "address": null,
    "phone": null,
    "website": null,
    "lat": 39.067792,
    "lon": -84.587917,
    "source": "openstreetmap",
    "fqhc": false
  },
  {
    "name": "Magnolia Springs Loveland",
    "type": "clinic",
    "category": "Health Clinic",
    "address": null,
    "phone": null,
    "website": "https://msloveland.com/",
    "lat": 39.227162,
    "lon": -84.258857,
    "source": "openstreetmap",
    "fqhc": false
  },
  {
    "name": "Maple Knoll Village",
    "type": "clinic",
    "category": "Health Clinic",
    "address": null,
    "phone": null,
    "website": null,
    "lat": 39.27768,
    "lon": -84.479431,
    "source": "openstreetmap",
    "fqhc": false
  },
  {
    "name": "Marjorie P. Lee Community",
    "type": "clinic",
    "category": "Health Clinic",
    "address": "3550 Shaw Avenue Cincinnati OH",
    "phone": "+1-513-871-2090",
    "website": "http://marjorieplee.com/",
    "lat": 39.141624,
    "lon": -84.439371,
    "source": "openstreetmap",
    "fqhc": false
  },
  {
    "name": "Market off 50",
    "type": "clinic",
    "category": "Health Clinic",
    "address": "995 Lila Avenue Milford OH",
    "phone": null,
    "website": "https://impactingtomorrow.com/market-off-50",
    "lat": 39.17474,
    "lon": -84.275837,
    "source": "openstreetmap",
    "fqhc": false
  },
  {
    "name": "Mayfield Spine Surgery Center",
    "type": "clinic",
    "category": "Health Clinic",
    "address": "4020 Smith Road Norwood OH",
    "phone": "+1 513 619 5899",
    "website": "https://mayfieldsurgerycenter.com",
    "lat": 39.151264,
    "lon": -84.44502,
    "source": "openstreetmap",
    "fqhc": false
  },
  {
    "name": "Mercy Fairfield Orthopedics",
    "type": "clinic",
    "category": "Health Clinic",
    "address": "3050 Mack Road Fairfield OH",
    "phone": null,
    "website": null,
    "lat": 39.313664,
    "lon": -84.516591,
    "source": "openstreetmap",
    "fqhc": false
  },
  {
    "name": "Mercy Health",
    "type": "clinic",
    "category": "Health Clinic",
    "address": null,
    "phone": null,
    "website": null,
    "lat": 39.28722,
    "lon": -84.472561,
    "source": "openstreetmap",
    "fqhc": false
  },
  {
    "name": "Mercy Health Center of Excellence",
    "type": "clinic",
    "category": "Health Clinic",
    "address": "1508 John Street Cincinnati OH",
    "phone": "+1-513-347-9999",
    "website": "https://www.mercy.com/locations/specialty-locations/orthopedics-sports-medicine-spine/mercy-health-center-of-excellence-orthopaedics-and-sports-medicine",
    "lat": 39.111104,
    "lon": -84.523345,
    "source": "openstreetmap",
    "fqhc": false
  },
  {
    "name": "Mercy Health Partners",
    "type": "clinic",
    "category": "Health Clinic",
    "address": "201 Old Bank Road Milford OH",
    "phone": null,
    "website": null,
    "lat": 39.184237,
    "lon": -84.266034,
    "source": "openstreetmap",
    "fqhc": false
  },
  {
    "name": "Mercy Health Physicians",
    "type": "clinic",
    "category": "Health Clinic",
    "address": "5150 Sandy Ln",
    "phone": null,
    "website": null,
    "lat": 39.339109,
    "lon": -84.556338,
    "source": "openstreetmap",
    "fqhc": false
  },
  {
    "name": "Mercy Health Winton Road Primary Care",
    "type": "clinic",
    "category": "Health Clinic",
    "address": null,
    "phone": null,
    "website": "https://www.mercy.com/locations/primary-care-family-medicine/cincinnati/mercy-health-winton-road-primary-care",
    "lat": 39.202312,
    "lon": -84.520625,
    "source": "openstreetmap",
    "fqhc": false
  },
  {
    "name": "Mercy Health \u2014 Oakley Primary Care",
    "type": "clinic",
    "category": "Health Clinic",
    "address": "4631 Ridge Avenue Cincinnati OH",
    "phone": "+1-513-631-1268",
    "website": "https://www.mercy.com/locations/primary-care-family-medicine/cincinnati/mercy-health-oakley-primary-care",
    "lat": 39.159804,
    "lon": -84.421331,
    "source": "openstreetmap",
    "fqhc": false
  },
  {
    "name": "Mercy WestPark",
    "type": "clinic",
    "category": "Health Clinic",
    "address": null,
    "phone": null,
    "website": null,
    "lat": 39.130159,
    "lon": -84.598108,
    "source": "openstreetmap",
    "fqhc": false
  },
  {
    "name": "Meridian Bioscience",
    "type": "clinic",
    "category": "Health Clinic",
    "address": null,
    "phone": null,
    "website": null,
    "lat": 39.124216,
    "lon": -84.356803,
    "source": "openstreetmap",
    "fqhc": false
  },
  {
    "name": "Miers Physical Therapy",
    "type": "clinic",
    "category": "Health Clinic",
    "address": "10776 Montgomery Road Cincinnati OH",
    "phone": null,
    "website": "https://www.mierspt.com/",
    "lat": 39.258465,
    "lon": -84.339684,
    "source": "openstreetmap",
    "fqhc": false
  },
  {
    "name": "Montgomery Family Medicine",
    "type": "clinic",
    "category": "Health Clinic",
    "address": null,
    "phone": null,
    "website": "https://www.trihealth.com/hospitals-and-practices/montgomery-family-medicine/",
    "lat": 39.26422,
    "lon": -84.335667,
    "source": "openstreetmap",
    "fqhc": false
  },
  {
    "name": "Montgomery North Medical Center",
    "type": "clinic",
    "category": "Health Clinic",
    "address": null,
    "phone": null,
    "website": null,
    "lat": 39.250676,
    "lon": -84.345275,
    "source": "openstreetmap",
    "fqhc": false
  },
  {
    "name": "Mount Auburn Senior Center",
    "type": "clinic",
    "category": "Health Clinic",
    "address": "2010 Auburn Avenue Cincinnati OH",
    "phone": null,
    "website": null,
    "lat": 39.118466,
    "lon": -84.508451,
    "source": "openstreetmap",
    "fqhc": false
  },
  {
    "name": "My Independence",
    "type": "clinic",
    "category": "Health Clinic",
    "address": null,
    "phone": "+1-513-771-0306",
    "website": "https://myindependencellc.com/",
    "lat": 39.283769,
    "lon": -84.443403,
    "source": "openstreetmap",
    "fqhc": false
  },
  {
    "name": "MyEyeDr.",
    "type": "clinic",
    "category": "Health Clinic",
    "address": null,
    "phone": null,
    "website": "https://www.myeyedr.com/",
    "lat": 39.08929,
    "lon": -84.476259,
    "source": "openstreetmap",
    "fqhc": false
  },
  {
    "name": "Newport/Ft. Thomas Urgent Care",
    "type": "clinic",
    "category": "Health Clinic",
    "address": "1400 North Grand Avenue Newport KY",
    "phone": "+1-859-781-3110",
    "website": "https://www.stelizabeth.com/location/details/ophthalmology-ft-thomas",
    "lat": 39.080405,
    "lon": -84.468753,
    "source": "openstreetmap",
    "fqhc": false
  },
  {
    "name": "NorthKey Community Care",
    "type": "clinic",
    "category": "Health Clinic",
    "address": "502 Farrell Drive Covington KY",
    "phone": null,
    "website": null,
    "lat": 39.049506,
    "lon": -84.52929,
    "source": "openstreetmap",
    "fqhc": false
  },
  {
    "name": "Northeast Cincinnati Pediatrics",
    "type": "clinic",
    "category": "Health Clinic",
    "address": null,
    "phone": null,
    "website": null,
    "lat": 39.321018,
    "lon": -84.285688,
    "source": "openstreetmap",
    "fqhc": false
  },
  {
    "name": "Northeast Pediatrics",
    "type": "clinic",
    "category": "Health Clinic",
    "address": null,
    "phone": null,
    "website": null,
    "lat": 39.2561,
    "lon": -84.343871,
    "source": "openstreetmap",
    "fqhc": false
  },
  {
    "name": "Northern Kentucky Oral & Maxillofacial Surgery Associates",
    "type": "clinic",
    "category": "Health Clinic",
    "address": null,
    "phone": null,
    "website": null,
    "lat": 39.022022,
    "lon": -84.625725,
    "source": "openstreetmap",
    "fqhc": false
  },
  {
    "name": "Northern Kentucky Scholar House",
    "type": "clinic",
    "category": "Health Clinic",
    "address": null,
    "phone": null,
    "website": "https://www.brightoncenter.com/programs/scholar_house/overview",
    "lat": 39.086878,
    "lon": -84.500415,
    "source": "openstreetmap",
    "fqhc": false
  },
  {
    "name": "Northgate Park",
    "type": "clinic",
    "category": "Health Clinic",
    "address": null,
    "phone": null,
    "website": null,
    "lat": 39.240011,
    "lon": -84.596552,
    "source": "openstreetmap",
    "fqhc": false
  },
  {
    "name": "Nova Care",
    "type": "clinic",
    "category": "Health Clinic",
    "address": null,
    "phone": null,
    "website": null,
    "lat": 39.296473,
    "lon": -84.523549,
    "source": "openstreetmap",
    "fqhc": false
  },
  {
    "name": "NxStage Kidney Care Cincinnati",
    "type": "clinic",
    "category": "Health Clinic",
    "address": "12065 Montgomery Road",
    "phone": null,
    "website": "http://www.nxstagekidneycare.com/locations/cincinnati",
    "lat": 39.289294,
    "lon": -84.302203,
    "source": "openstreetmap",
    "fqhc": false
  },
  {
    "name": "Oak Hills",
    "type": "clinic",
    "category": "Health Clinic",
    "address": null,
    "phone": null,
    "website": null,
    "lat": 39.157424,
    "lon": -84.621882,
    "source": "openstreetmap",
    "fqhc": false
  },
  {
    "name": "Ohio Living Llanfair",
    "type": "clinic",
    "category": "Health Clinic",
    "address": null,
    "phone": null,
    "website": "https://www.ohioliving.org/communities/ohio-living-llanfair",
    "lat": 39.1955,
    "lon": -84.549567,
    "source": "openstreetmap",
    "fqhc": false
  },
  {
    "name": "OrthoCincy",
    "type": "clinic",
    "category": "Health Clinic",
    "address": "7910 Beechmont Avenue Cincinnati OH",
    "phone": null,
    "website": null,
    "lat": 39.074021,
    "lon": -84.336756,
    "source": "openstreetmap",
    "fqhc": false
  },
  {
    "name": "Orthopaedics and Sports Medicine",
    "type": "clinic",
    "category": "Health Clinic",
    "address": "7981 Beechmont Avenue Cincinnati OH",
    "phone": null,
    "website": null,
    "lat": 39.072285,
    "lon": -84.33485,
    "source": "openstreetmap",
    "fqhc": false
  },
  {
    "name": "Orthopedic Surgery Center",
    "type": "clinic",
    "category": "Health Clinic",
    "address": null,
    "phone": null,
    "website": null,
    "lat": 39.020395,
    "lon": -84.586231,
    "source": "openstreetmap",
    "fqhc": false
  },
  {
    "name": "Our Daily Bread",
    "type": "clinic",
    "category": "Health Clinic",
    "address": "1730 Race Street Cincinnati OH",
    "phone": null,
    "website": null,
    "lat": 39.115292,
    "lon": -84.517884,
    "source": "openstreetmap",
    "fqhc": false
  },
  {
    "name": "Over-The-Rhine Kitchen",
    "type": "clinic",
    "category": "Health Clinic",
    "address": "1620 Vine Street Cincinnati OH",
    "phone": null,
    "website": null,
    "lat": 39.113686,
    "lon": -84.515799,
    "source": "openstreetmap",
    "fqhc": false
  },
  {
    "name": "Oxford Physical Therapy Blue Ash Center",
    "type": "clinic",
    "category": "Health Clinic",
    "address": null,
    "phone": null,
    "website": null,
    "lat": 39.226317,
    "lon": -84.379167,
    "source": "openstreetmap",
    "fqhc": false
  },
  {
    "name": "Passport Health Blue Ash Travel Clinic",
    "type": "clinic",
    "category": "Health Clinic",
    "address": "10274 Alliance Road Cincinnati OH",
    "phone": null,
    "website": null,
    "lat": 39.248391,
    "lon": -84.378029,
    "source": "openstreetmap",
    "fqhc": false
  },
  {
    "name": "Passport Health Fort Wright Travel Clinic",
    "type": "clinic",
    "category": "Health Clinic",
    "address": "1717 Dixie Highway Fort Wright KY",
    "phone": null,
    "website": null,
    "lat": 39.062117,
    "lon": -84.538276,
    "source": "openstreetmap",
    "fqhc": false
  },
  {
    "name": "Pediatric Associates",
    "type": "clinic",
    "category": "Health Clinic",
    "address": null,
    "phone": null,
    "website": "https://pediatricassociates.us/",
    "lat": 39.335633,
    "lon": -84.522773,
    "source": "openstreetmap",
    "fqhc": false
  },
  {
    "name": "Pediatric Associates PSC",
    "type": "clinic",
    "category": "Health Clinic",
    "address": "175 French Street Cold Spring KY",
    "phone": "+1-859-341-5400",
    "website": "https://www.pediatricassociatesnky.com/Locations/Cold-Spring",
    "lat": 39.022914,
    "lon": -84.443617,
    "source": "openstreetmap",
    "fqhc": false
  },
  {
    "name": "Pediatric Associates of Harrison",
    "type": "clinic",
    "category": "Health Clinic",
    "address": null,
    "phone": null,
    "website": null,
    "lat": 39.257264,
    "lon": -84.802771,
    "source": "openstreetmap",
    "fqhc": false
  },
  {
    "name": "Primary Care - Highland Heights",
    "type": "clinic",
    "category": "Health Clinic",
    "address": "2926 Alexandria Pike Highland Heights KY",
    "phone": "+1-859-781-4111",
    "website": null,
    "lat": 39.0353,
    "lon": -84.45491,
    "source": "openstreetmap",
    "fqhc": false
  },
  {
    "name": "Prime IV Hydration and Wellness",
    "type": "clinic",
    "category": "Health Clinic",
    "address": null,
    "phone": null,
    "website": null,
    "lat": 38.998866,
    "lon": -84.654234,
    "source": "openstreetmap",
    "fqhc": false
  },
  {
    "name": "Proscan Imaging",
    "type": "clinic",
    "category": "Health Clinic",
    "address": "Parkway Drive",
    "phone": null,
    "website": null,
    "lat": 39.303728,
    "lon": -84.313606,
    "source": "openstreetmap",
    "fqhc": false
  },
  {
    "name": "Providence Pavilion",
    "type": "clinic",
    "category": "Health Clinic",
    "address": "401 East 20th Street Covington",
    "phone": "+1 859 283 6600",
    "website": "http://www.providencenky.com/",
    "lat": 39.067388,
    "lon": -84.499993,
    "source": "openstreetmap",
    "fqhc": false
  },
  {
    "name": "Provision Living",
    "type": "clinic",
    "category": "Health Clinic",
    "address": "4299 Bach Buxton Road Batavia OH",
    "phone": null,
    "website": "https://www.provisionliving.com/union-township-oh/",
    "lat": 39.085125,
    "lon": -84.256093,
    "source": "openstreetmap",
    "fqhc": false
  },
  {
    "name": "Queen City Hospice",
    "type": "clinic",
    "category": "Health Clinic",
    "address": "4605 Duke Drive Mason OH",
    "phone": "+1-513-510-4406",
    "website": "https://www.queencityhospice.com/",
    "lat": 39.301755,
    "lon": -84.306724,
    "source": "openstreetmap",
    "fqhc": false
  },
  {
    "name": "Rettay Chiropractor",
    "type": "clinic",
    "category": "Health Clinic",
    "address": null,
    "phone": null,
    "website": null,
    "lat": 39.001201,
    "lon": -84.639841,
    "source": "openstreetmap",
    "fqhc": false
  },
  {
    "name": "Ronald McDonald House Greater Cincinnati",
    "type": "clinic",
    "category": "Health Clinic",
    "address": null,
    "phone": null,
    "website": "https://www.rmhcincinnati.org/",
    "lat": 39.142371,
    "lon": -84.500831,
    "source": "openstreetmap",
    "fqhc": false
  },
  {
    "name": "Rose Gynecology",
    "type": "clinic",
    "category": "Health Clinic",
    "address": null,
    "phone": null,
    "website": null,
    "lat": 39.021444,
    "lon": -84.606176,
    "source": "openstreetmap",
    "fqhc": false
  },
  {
    "name": "S.M.I.L.E.S. Integrative Therapy Services",
    "type": "clinic",
    "category": "Health Clinic",
    "address": "1120 Cottonwood Drive Loveland OH",
    "phone": "+1-513-583-8333",
    "website": "https://www.smilestherapy.com/",
    "lat": 39.255865,
    "lon": -84.295669,
    "source": "openstreetmap",
    "fqhc": false
  },
  {
    "name": "SEM Haven",
    "type": "clinic",
    "category": "Health Clinic",
    "address": "225 Cleveland Avenue Milford OH",
    "phone": null,
    "website": "https://www.semhaven.org/",
    "lat": 39.16662,
    "lon": -84.29278,
    "source": "openstreetmap",
    "fqhc": false
  },
  {
    "name": "SEM Laurels",
    "type": "clinic",
    "category": "Health Clinic",
    "address": "203 Mound Street Milford OH",
    "phone": null,
    "website": null,
    "lat": 39.164256,
    "lon": -84.296544,
    "source": "openstreetmap",
    "fqhc": false
  },
  {
    "name": "SEM Manor",
    "type": "clinic",
    "category": "Health Clinic",
    "address": "1348 Pebble Court Cincinnati OH",
    "phone": null,
    "website": null,
    "lat": 39.075101,
    "lon": -84.336445,
    "source": "openstreetmap",
    "fqhc": false
  },
  {
    "name": "SEM Terrace",
    "type": "clinic",
    "category": "Health Clinic",
    "address": "5371 South Milford Road Milford OH",
    "phone": null,
    "website": "https://semterrace.org/",
    "lat": 39.162466,
    "lon": -84.295378,
    "source": "openstreetmap",
    "fqhc": false
  },
  {
    "name": "SEM Villa",
    "type": "clinic",
    "category": "Health Clinic",
    "address": "201 Mound Street Milford OH",
    "phone": null,
    "website": "https://www.semvilla.org/",
    "lat": 39.164457,
    "lon": -84.294793,
    "source": "openstreetmap",
    "fqhc": false
  },
  {
    "name": "Saint Aloysius Education Center",
    "type": "clinic",
    "category": "Health Clinic",
    "address": "OH",
    "phone": null,
    "website": "https://www.staloysiuscincinnati.org/",
    "lat": 39.171481,
    "lon": -84.469357,
    "source": "openstreetmap",
    "fqhc": false
  },
  {
    "name": "Saint Charles Community",
    "type": "clinic",
    "category": "Health Clinic",
    "address": "KY",
    "phone": null,
    "website": "https://stcharlescommunity.org/",
    "lat": 39.048127,
    "lon": -84.528104,
    "source": "openstreetmap",
    "fqhc": false
  },
  {
    "name": "Saint George Food Pantry",
    "type": "clinic",
    "category": "Health Clinic",
    "address": null,
    "phone": null,
    "website": null,
    "lat": 39.128676,
    "lon": -84.513559,
    "source": "openstreetmap",
    "fqhc": false
  },
  {
    "name": "Saint John Social Service Center",
    "type": "clinic",
    "category": "Health Clinic",
    "address": "OH",
    "phone": null,
    "website": null,
    "lat": 39.109699,
    "lon": -84.512195,
    "source": "openstreetmap",
    "fqhc": false
  },
  {
    "name": "Saint Joseph Home",
    "type": "clinic",
    "category": "Health Clinic",
    "address": "10722 Wyscarver Road Cincinnati",
    "phone": "+1-513-563-2520",
    "website": "https://www.stjosephhome.org/",
    "lat": 39.260679,
    "lon": -84.410283,
    "source": "openstreetmap",
    "fqhc": false
  },
  {
    "name": "Saint Joseph Orphanage Altercrest Campus",
    "type": "clinic",
    "category": "Health Clinic",
    "address": null,
    "phone": null,
    "website": "https://stjosephorphanage.org/altercrest/",
    "lat": 39.055488,
    "lon": -84.411694,
    "source": "openstreetmap",
    "fqhc": false
  },
  {
    "name": "Saint Joseph Orphanage Villa Campus",
    "type": "clinic",
    "category": "Health Clinic",
    "address": null,
    "phone": null,
    "website": "https://stjosephorphanage.org/villa/",
    "lat": 39.186422,
    "lon": -84.586134,
    "source": "openstreetmap",
    "fqhc": false
  },
  {
    "name": "Saint Paul Village",
    "type": "clinic",
    "category": "Health Clinic",
    "address": null,
    "phone": null,
    "website": "https://www.episcopalretirement.com/affordable-living/st-paul-village/home",
    "lat": 39.160051,
    "lon": -84.398783,
    "source": "openstreetmap",
    "fqhc": false
  },
  {
    "name": "Sanctuary Pointe",
    "type": "clinic",
    "category": "Health Clinic",
    "address": null,
    "phone": null,
    "website": null,
    "lat": 39.290239,
    "lon": -84.5653,
    "source": "openstreetmap",
    "fqhc": false
  },
  {
    "name": "Sarah Center",
    "type": "clinic",
    "category": "Health Clinic",
    "address": "1615 Republic Street Cincinnati",
    "phone": null,
    "website": "https://www.sfsministries.org/our-ministries/sarah-center/",
    "lat": 39.113591,
    "lon": -84.51703,
    "source": "openstreetmap",
    "fqhc": false
  },
  {
    "name": "Scarlet Oaks",
    "type": "clinic",
    "category": "Health Clinic",
    "address": null,
    "phone": null,
    "website": null,
    "lat": 39.156978,
    "lon": -84.526354,
    "source": "openstreetmap",
    "fqhc": false
  },
  {
    "name": "Siena Gardens",
    "type": "clinic",
    "category": "Health Clinic",
    "address": "1055 Ohio Pike Cincinnati OH",
    "phone": null,
    "website": "https://www.siena-gardens.net/",
    "lat": 39.056334,
    "lon": -84.261159,
    "source": "openstreetmap",
    "fqhc": false
  },
  {
    "name": "Silver Fern Senior Living",
    "type": "clinic",
    "category": "Health Clinic",
    "address": "3855 Hauck Road Sharonville OH",
    "phone": null,
    "website": "https://www.silverferncincinnati.com/",
    "lat": 39.289633,
    "lon": -84.398314,
    "source": "openstreetmap",
    "fqhc": false
  },
  {
    "name": "Sole Revival Reflexology",
    "type": "clinic",
    "category": "Health Clinic",
    "address": null,
    "phone": null,
    "website": null,
    "lat": 39.171668,
    "lon": -84.296604,
    "source": "openstreetmap",
    "fqhc": false
  },
  {
    "name": "Southwest Ohio Gastroenterology",
    "type": "clinic",
    "category": "Health Clinic",
    "address": null,
    "phone": null,
    "website": null,
    "lat": 39.266272,
    "lon": -84.333433,
    "source": "openstreetmap",
    "fqhc": false
  },
  {
    "name": "St. Elizabeth Physicians",
    "type": "clinic",
    "category": "Health Clinic",
    "address": null,
    "phone": null,
    "website": null,
    "lat": 39.024598,
    "lon": -84.566095,
    "source": "openstreetmap",
    "fqhc": false
  },
  {
    "name": "Takoda Trails",
    "type": "clinic",
    "category": "Health Clinic",
    "address": "350 Kolb Drive Fairfield OH",
    "phone": null,
    "website": "https://www.empowering-people.net/takoda-trails",
    "lat": 39.306015,
    "lon": -84.516246,
    "source": "openstreetmap",
    "fqhc": false
  },
  {
    "name": "The Ashton at Anderson",
    "type": "clinic",
    "category": "Health Clinic",
    "address": "6849 Beechmont Avenue Cincinnati OH",
    "phone": null,
    "website": "https://www.sonidaseniorliving.com/community/the-ashton-at-anderson/",
    "lat": 39.079561,
    "lon": -84.372293,
    "source": "openstreetmap",
    "fqhc": false
  },
  {
    "name": "The Atlantes",
    "type": "clinic",
    "category": "Health Clinic",
    "address": "776 Old State Route 74 Cincinnati OH",
    "phone": null,
    "website": "https://www.carespring.com/the-atlantes/",
    "lat": 39.107945,
    "lon": -84.277656,
    "source": "openstreetmap",
    "fqhc": false
  },
  {
    "name": "The Beechwood Home",
    "type": "clinic",
    "category": "Health Clinic",
    "address": "2140 Pogue Avenue Cincinnati OH",
    "phone": null,
    "website": "https://www.beechwoodhome.com/",
    "lat": 39.136105,
    "lon": -84.459844,
    "source": "openstreetmap",
    "fqhc": false
  },
  {
    "name": "The Christ Hospital Outpatient Center",
    "type": "clinic",
    "category": "Health Clinic",
    "address": null,
    "phone": null,
    "website": null,
    "lat": 39.055057,
    "lon": -84.546353,
    "source": "openstreetmap",
    "fqhc": false
  },
  {
    "name": "The Christ Hospital Physicians Primary Care Harper\u2019s Point",
    "type": "clinic",
    "category": "Health Clinic",
    "address": null,
    "phone": null,
    "website": "https://www.thechristhospital.com/services/primary-care/practice-locations/montgomery/harpers-point",
    "lat": 39.270249,
    "lon": -84.326535,
    "source": "openstreetmap",
    "fqhc": false
  },
  {
    "name": "The David & Rebecca Barron Center for Men",
    "type": "clinic",
    "category": "Health Clinic",
    "address": null,
    "phone": null,
    "website": null,
    "lat": 39.098833,
    "lon": -84.526991,
    "source": "openstreetmap",
    "fqhc": false
  },
  {
    "name": "The Dermatology Group",
    "type": "clinic",
    "category": "Health Clinic",
    "address": "4450 Eastgate Boulevard Cincinnati OH",
    "phone": null,
    "website": null,
    "lat": 39.093746,
    "lon": -84.272831,
    "source": "openstreetmap",
    "fqhc": false
  },
  {
    "name": "The Jewish Hospital \u2013 Mercy Health Outpatient Clinic",
    "type": "clinic",
    "category": "Health Clinic",
    "address": "6350 East Galbraith Road Cincinnati OH",
    "phone": null,
    "website": "https://www.mercy.com/locations/medical-centers-clinics/cincinnati/the-jewish-hospital-mercy-health-outpatient-clinic",
    "lat": 39.205891,
    "lon": -84.369738,
    "source": "openstreetmap",
    "fqhc": false
  },
  {
    "name": "The Kenwood by Senior Star",
    "type": "clinic",
    "category": "Health Clinic",
    "address": "5435 Kenwood Road Cincinnati OH",
    "phone": null,
    "website": null,
    "lat": 39.167237,
    "lon": -84.388026,
    "source": "openstreetmap",
    "fqhc": false
  },
  {
    "name": "The Kidney and Hypertension Center",
    "type": "clinic",
    "category": "Health Clinic",
    "address": null,
    "phone": null,
    "website": "http://www.khc.cc/",
    "lat": 39.266714,
    "lon": -84.332941,
    "source": "openstreetmap",
    "fqhc": false
  },
  {
    "name": "The Little Clinic",
    "type": "clinic",
    "category": "Health Clinic",
    "address": null,
    "phone": null,
    "website": null,
    "lat": 39.271931,
    "lon": -84.326158,
    "source": "openstreetmap",
    "fqhc": false
  },
  {
    "name": "The Little Clinic",
    "type": "clinic",
    "category": "Health Clinic",
    "address": null,
    "phone": null,
    "website": null,
    "lat": 39.049034,
    "lon": -84.55267,
    "source": "openstreetmap",
    "fqhc": false
  },
  {
    "name": "The Seasons@Alexandria",
    "type": "clinic",
    "category": "Health Clinic",
    "address": null,
    "phone": "+1-859-694-4450",
    "website": null,
    "lat": 38.987261,
    "lon": -84.395228,
    "source": "openstreetmap",
    "fqhc": false
  },
  {
    "name": "Three Rivers Healthcare Center",
    "type": "clinic",
    "category": "Health Clinic",
    "address": "7800 Jandaracres Drive Miami Township OH",
    "phone": null,
    "website": "https://communicarehealth.com/location/three-rivers-healthcare-center/",
    "lat": 39.168844,
    "lon": -84.701864,
    "source": "openstreetmap",
    "fqhc": false
  },
  {
    "name": "Town Square Apartments",
    "type": "clinic",
    "category": "Health Clinic",
    "address": null,
    "phone": null,
    "website": "http://townsquareseniorapartments.com/",
    "lat": 39.229793,
    "lon": -84.378646,
    "source": "openstreetmap",
    "fqhc": false
  },
  {
    "name": "Traditions of Deerfield",
    "type": "clinic",
    "category": "Health Clinic",
    "address": null,
    "phone": null,
    "website": "https://www.traditionsofdeerfield.com/",
    "lat": 39.300307,
    "lon": -84.288134,
    "source": "openstreetmap",
    "fqhc": false
  },
  {
    "name": "Tri-State Centers for Sight, Inc. - Hyde Park",
    "type": "clinic",
    "category": "Health Clinic",
    "address": "2135 Dana Avenue Cincinnati OH",
    "phone": "+1-513-221-7788",
    "website": "https://www.tristatesight.com/",
    "lat": 39.145421,
    "lon": -84.459929,
    "source": "openstreetmap",
    "fqhc": false
  },
  {
    "name": "Tri-State Centers for Sight, Inc. - North College Hill",
    "type": "clinic",
    "category": "Health Clinic",
    "address": "1577 Goodman Avenue Cincinnati OH",
    "phone": "+1-513-729-1321",
    "website": "https://www.tristatesight.com/",
    "lat": 39.215918,
    "lon": -84.546712,
    "source": "openstreetmap",
    "fqhc": false
  },
  {
    "name": "Tri-State Centers for Sight, Inc.- Kenwood Montgomery Road",
    "type": "clinic",
    "category": "Health Clinic",
    "address": "7730 Montgomery Road Cincinnati OH",
    "phone": "+1-513-791-5999",
    "website": "https://www.tristatesight.com/",
    "lat": 39.197087,
    "lon": -84.38439,
    "source": "openstreetmap",
    "fqhc": false
  },
  {
    "name": "Tri-State Orthopedic Center",
    "type": "clinic",
    "category": "Health Clinic",
    "address": null,
    "phone": null,
    "website": "http://www.trihealth.com/institutes-and-services/trihealth-orthopedic-and-sports-institute/locations/#Montgomery",
    "lat": 39.252531,
    "lon": -84.344325,
    "source": "openstreetmap",
    "fqhc": false
  },
  {
    "name": "TriHealth",
    "type": "clinic",
    "category": "Health Clinic",
    "address": null,
    "phone": null,
    "website": null,
    "lat": 39.072429,
    "lon": -84.334142,
    "source": "openstreetmap",
    "fqhc": false
  },
  {
    "name": "TriHealth Endoscopy Center North",
    "type": "clinic",
    "category": "Health Clinic",
    "address": "10600 Montgomery Road Cincinnati",
    "phone": "+1 513 794 5680",
    "website": "https://www.trihealth.com/hospitals-and-practices/trihealth-endoscopy-center-north/",
    "lat": 39.254374,
    "lon": -84.343218,
    "source": "openstreetmap",
    "fqhc": false
  },
  {
    "name": "TriHealth Heart Institute",
    "type": "clinic",
    "category": "Health Clinic",
    "address": "10525 Montgomery Road Montgomery OH",
    "phone": null,
    "website": "https://www.trihealth.com/institutes-and-services/trihealth-heart-institute/",
    "lat": 39.25076,
    "lon": -84.343529,
    "source": "openstreetmap",
    "fqhc": false
  },
  {
    "name": "TriHealth Kenwood",
    "type": "clinic",
    "category": "Health Clinic",
    "address": null,
    "phone": null,
    "website": "https://www.cgha.com/locations/Kenwood.aspx",
    "lat": 39.206948,
    "lon": -84.370442,
    "source": "openstreetmap",
    "fqhc": false
  },
  {
    "name": "TriHealth Orthopedic and Sports Institute",
    "type": "clinic",
    "category": "Health Clinic",
    "address": null,
    "phone": null,
    "website": "https://www.trihealth.com/institutes-and-services/trihealth-orthopedic-and-sports-institute/",
    "lat": 39.206885,
    "lon": -84.366189,
    "source": "openstreetmap",
    "fqhc": false
  },
  {
    "name": "TriHealth Priority Care",
    "type": "clinic",
    "category": "Health Clinic",
    "address": null,
    "phone": null,
    "website": null,
    "lat": 39.317824,
    "lon": -84.31372,
    "source": "openstreetmap",
    "fqhc": false
  },
  {
    "name": "TriHealth Queen CIty Physicians & Pediatrics",
    "type": "clinic",
    "category": "Health Clinic",
    "address": "7829 Laurel Avenue Madeira OH",
    "phone": null,
    "website": null,
    "lat": 39.189908,
    "lon": -84.358627,
    "source": "openstreetmap",
    "fqhc": false
  },
  {
    "name": "Triple Creek Retirement Community",
    "type": "clinic",
    "category": "Health Clinic",
    "address": null,
    "phone": null,
    "website": "https://www.trilogyhs.com/senior-living/oh/cincinnati/triple-creek/",
    "lat": 39.281406,
    "lon": -84.570427,
    "source": "openstreetmap",
    "fqhc": false
  },
  {
    "name": "Twin Lakes",
    "type": "clinic",
    "category": "Health Clinic",
    "address": null,
    "phone": null,
    "website": "https://lec.org/twin-lakes/",
    "lat": 39.237901,
    "lon": -84.345119,
    "source": "openstreetmap",
    "fqhc": false
  },
  {
    "name": "Twin Towers",
    "type": "clinic",
    "category": "Health Clinic",
    "address": null,
    "phone": null,
    "website": "https://lec.org/twin-towers/",
    "lat": 39.185716,
    "lon": -84.5485,
    "source": "openstreetmap",
    "fqhc": false
  },
  {
    "name": "UC Health Gardner Neuroscience Institute",
    "type": "clinic",
    "category": "Health Clinic",
    "address": "3113 Bellevue Avenue Cincinnati OH",
    "phone": null,
    "website": "https://www.uchealth.com/neuroscience/",
    "lat": 39.135858,
    "lon": -84.504833,
    "source": "openstreetmap",
    "fqhc": false
  },
  {
    "name": "UC Health Physicians Office",
    "type": "clinic",
    "category": "Health Clinic",
    "address": null,
    "phone": null,
    "website": "https://uchealth.com/locations/uc-health-primary-care-montgomery/",
    "lat": 39.224375,
    "lon": -84.356269,
    "source": "openstreetmap",
    "fqhc": false
  },
  {
    "name": "UC Health Primary Care",
    "type": "clinic",
    "category": "Health Clinic",
    "address": "300 Chamber Drive Milford OH",
    "phone": null,
    "website": null,
    "lat": 39.159243,
    "lon": -84.276053,
    "source": "openstreetmap",
    "fqhc": false
  },
  {
    "name": "UC Health Wyoming Primary Care",
    "type": "clinic",
    "category": "Health Clinic",
    "address": "175 West Galbraith Road",
    "phone": "+1-513-821-0275",
    "website": "https://www.uchealth.com/en/locations/wyoming-primary-care",
    "lat": 39.21279,
    "lon": -84.483883,
    "source": "openstreetmap",
    "fqhc": false
  },
  {
    "name": "University Health Services",
    "type": "clinic",
    "category": "Health Clinic",
    "address": null,
    "phone": null,
    "website": "https://med.uc.edu/landing-pages/university-health",
    "lat": 39.131321,
    "lon": -84.514956,
    "source": "openstreetmap",
    "fqhc": false
  },
  {
    "name": "Urgent Care",
    "type": "clinic",
    "category": "Health Clinic",
    "address": "4450 Eastgate South Drive Cincinnati OH",
    "phone": null,
    "website": "https://www.mercy.com/locations/urgent-care/cincinnati/mercy-health-urgent-care-eastgate",
    "lat": 39.094635,
    "lon": -84.272342,
    "source": "openstreetmap",
    "fqhc": false
  },
  {
    "name": "Vein Center",
    "type": "clinic",
    "category": "Health Clinic",
    "address": "723 Buttermilk Pike Crescent Springs KY",
    "phone": null,
    "website": null,
    "lat": 39.053828,
    "lon": -84.58025,
    "source": "openstreetmap",
    "fqhc": false
  },
  {
    "name": "Venture Medical Weight Loss",
    "type": "clinic",
    "category": "Health Clinic",
    "address": "3700 Alexandria Pike Cold Spring KY",
    "phone": null,
    "website": "https://www.ventureweightloss.com",
    "lat": 39.027398,
    "lon": -84.449467,
    "source": "openstreetmap",
    "fqhc": false
  },
  {
    "name": "Veterans Health Administration Community Outreach",
    "type": "clinic",
    "category": "Health Clinic",
    "address": "909 Vine Street Cincinnati OH",
    "phone": null,
    "website": "https://www.cincinnati.va.gov/services/homeless/",
    "lat": 39.105698,
    "lon": -84.514388,
    "source": "openstreetmap",
    "fqhc": false
  },
  {
    "name": "Villas at Cincinnati",
    "type": "clinic",
    "category": "Health Clinic",
    "address": "3983 Rosslyn Drive Cincinnati OH",
    "phone": null,
    "website": "https://www.arcadialtc.com/the-villas-at-cincinnati",
    "lat": 39.151479,
    "lon": -84.409166,
    "source": "openstreetmap",
    "fqhc": false
  },
  {
    "name": "Visiting Angels Senior Home Care",
    "type": "clinic",
    "category": "Health Clinic",
    "address": "8595 Beechmont Avenue Cincinnati OH",
    "phone": "+1-513-898-1440",
    "website": "https://www.visitingangels.com/cincinnatieast/home",
    "lat": 39.071412,
    "lon": -84.316151,
    "source": "openstreetmap",
    "fqhc": false
  },
  {
    "name": "Visiting Angels Senior Home Care",
    "type": "clinic",
    "category": "Health Clinic",
    "address": "1099 Burlington Pike Florence KY",
    "phone": "+1-859-647-6770",
    "website": "https://www.visitingangels.com/nky/home",
    "lat": 39.007815,
    "lon": -84.663741,
    "source": "openstreetmap",
    "fqhc": false
  },
  {
    "name": "Visiting Angels Senior Home Care",
    "type": "clinic",
    "category": "Health Clinic",
    "address": "9019 Colerain Avenue Cincinnati OH",
    "phone": "+1-513-598-6770",
    "website": "https://www.visitingangels.com/cincinnatiwest/home",
    "lat": 39.235231,
    "lon": -84.592191,
    "source": "openstreetmap",
    "fqhc": false
  },
  {
    "name": "Wellington Orthopedic & Sports Medicine",
    "type": "clinic",
    "category": "Health Clinic",
    "address": null,
    "phone": null,
    "website": "https://wellingtonortho.com/locations/blue-ash/",
    "lat": 39.257735,
    "lon": -84.377286,
    "source": "openstreetmap",
    "fqhc": false
  },
  {
    "name": "Wellness Center",
    "type": "clinic",
    "category": "Health Clinic",
    "address": null,
    "phone": null,
    "website": null,
    "lat": 39.095034,
    "lon": -84.640362,
    "source": "openstreetmap",
    "fqhc": false
  },
  {
    "name": "WinMed Health Services",
    "type": "clinic",
    "category": "Health Clinic",
    "address": "1019 Linn Street Cincinnati OH",
    "phone": "+1-513-233-7100",
    "website": "https://winmedinc.org/WinMed_City_West.htm",
    "lat": 39.106257,
    "lon": -84.528579,
    "source": "openstreetmap",
    "fqhc": false
  },
  {
    "name": "Wolfgang R. Strobel",
    "type": "clinic",
    "category": "Health Clinic",
    "address": null,
    "phone": null,
    "website": null,
    "lat": 39.235599,
    "lon": -84.376357,
    "source": "openstreetmap",
    "fqhc": false
  },
  {
    "name": "Women\u2019s Center Forest Park",
    "type": "clinic",
    "category": "Health Clinic",
    "address": null,
    "phone": null,
    "website": "https://womenscenterohio.com/make-an-appointment/womens-center-forest-park/",
    "lat": 39.289989,
    "lon": -84.526188,
    "source": "openstreetmap",
    "fqhc": false
  },
  {
    "name": "24/7 Dental",
    "type": "dentist",
    "category": "Dental",
    "address": null,
    "phone": null,
    "website": null,
    "lat": 39.216435,
    "lon": -84.584656,
    "source": "openstreetmap",
    "fqhc": false
  },
  {
    "name": "Advance Dentistry",
    "type": "dentist",
    "category": "Dental",
    "address": null,
    "phone": null,
    "website": null,
    "lat": 39.141832,
    "lon": -84.391237,
    "source": "openstreetmap",
    "fqhc": false
  },
  {
    "name": "Affordable Dentures",
    "type": "dentist",
    "category": "Dental",
    "address": null,
    "phone": null,
    "website": null,
    "lat": 39.295699,
    "lon": -84.519968,
    "source": "openstreetmap",
    "fqhc": false
  },
  {
    "name": "Afinia Dental",
    "type": "dentist",
    "category": "Dental",
    "address": null,
    "phone": null,
    "website": null,
    "lat": 39.095651,
    "lon": -84.267994,
    "source": "openstreetmap",
    "fqhc": false
  },
  {
    "name": "Afinia Dental",
    "type": "dentist",
    "category": "Dental",
    "address": "9415 Fields Ertel Road Cincinnati OH",
    "phone": "+1-513-482-1828",
    "website": "https://afiniadental.com/location/mason/",
    "lat": 39.290329,
    "lon": -84.301569,
    "source": "openstreetmap",
    "fqhc": false
  },
  {
    "name": "All Smiles Dental Studio of Eastgate",
    "type": "dentist",
    "category": "Dental",
    "address": "4530 Eastgate Boulevard Cincinnati OH",
    "phone": null,
    "website": null,
    "lat": 39.102122,
    "lon": -84.271398,
    "source": "openstreetmap",
    "fqhc": false
  },
  {
    "name": "Applegate Dentistry & Medspa",
    "type": "dentist",
    "category": "Dental",
    "address": "322 Greenup Street Covington KY",
    "phone": "+1 859-291-8600",
    "website": "https://www.drbarryapplegate.com/",
    "lat": 39.088037,
    "lon": -84.507707,
    "source": "openstreetmap",
    "fqhc": false
  },
  {
    "name": "Asch Dental",
    "type": "dentist",
    "category": "Dental",
    "address": null,
    "phone": null,
    "website": null,
    "lat": 39.289277,
    "lon": -84.467415,
    "source": "openstreetmap",
    "fqhc": false
  },
  {
    "name": "Aspen Dental",
    "type": "dentist",
    "category": "Dental",
    "address": null,
    "phone": null,
    "website": null,
    "lat": 39.251181,
    "lon": -84.597355,
    "source": "openstreetmap",
    "fqhc": false
  },
  {
    "name": "Aspen Dental",
    "type": "dentist",
    "category": "Dental",
    "address": null,
    "phone": null,
    "website": null,
    "lat": 39.287498,
    "lon": -84.46628,
    "source": "openstreetmap",
    "fqhc": false
  },
  {
    "name": "Aspen Dental",
    "type": "dentist",
    "category": "Dental",
    "address": null,
    "phone": null,
    "website": null,
    "lat": 39.089084,
    "lon": -84.476174,
    "source": "openstreetmap",
    "fqhc": false
  },
  {
    "name": "Aspen Dental",
    "type": "dentist",
    "category": "Dental",
    "address": null,
    "phone": null,
    "website": null,
    "lat": 38.999009,
    "lon": -84.652885,
    "source": "openstreetmap",
    "fqhc": false
  },
  {
    "name": "Aspen Dental",
    "type": "dentist",
    "category": "Dental",
    "address": "867 Eastgate North Drive Cincinnati OH",
    "phone": null,
    "website": null,
    "lat": 39.096754,
    "lon": -84.267504,
    "source": "openstreetmap",
    "fqhc": false
  },
  {
    "name": "Aspen Dental",
    "type": "dentist",
    "category": "Dental",
    "address": "4820 Ridge Avenue Cincinnati OH",
    "phone": "+1-513-233-7656",
    "website": "https://www.aspendental.com/dentist/oh/cincinnati/4820-ridge-ave/",
    "lat": 39.161694,
    "lon": -84.420248,
    "source": "openstreetmap",
    "fqhc": false
  },
  {
    "name": "Bell Dental Group",
    "type": "dentist",
    "category": "Dental",
    "address": "2767 Erie Avenue Cincinnati OH",
    "phone": "+1 513 321 2278",
    "website": null,
    "lat": 39.139109,
    "lon": -84.440374,
    "source": "openstreetmap",
    "fqhc": false
  },
  {
    "name": "Bellevue Family Dentistry",
    "type": "dentist",
    "category": "Dental",
    "address": null,
    "phone": "+1-859-291-7621",
    "website": null,
    "lat": 39.106621,
    "lon": -84.482713,
    "source": "openstreetmap",
    "fqhc": false
  },
  {
    "name": "Blue Ash Dental Group",
    "type": "dentist",
    "category": "Dental",
    "address": null,
    "phone": null,
    "website": "https://www.blueashdental.com/",
    "lat": 39.230772,
    "lon": -84.376232,
    "source": "openstreetmap",
    "fqhc": false
  },
  {
    "name": "Cassinelli, Shanker & Baker",
    "type": "dentist",
    "category": "Dental",
    "address": "4881 Cooper Road Blue Ash OH",
    "phone": "+1-513-777-7060",
    "website": "https://westchesterorthodontics.com/",
    "lat": 39.230154,
    "lon": -84.374795,
    "source": "openstreetmap",
    "fqhc": false
  },
  {
    "name": "Charles D. Moorehead Family Dentistry",
    "type": "dentist",
    "category": "Dental",
    "address": null,
    "phone": null,
    "website": "https://www.mooreheaddentistry.com/",
    "lat": 39.25121,
    "lon": -84.375374,
    "source": "openstreetmap",
    "fqhc": false
  },
  {
    "name": "Cincinnati Dental Services",
    "type": "dentist",
    "category": "Dental",
    "address": null,
    "phone": null,
    "website": "https://www.cincinnatidentalservices.com/practices/cincinnati-dental-services-landen/",
    "lat": 39.305738,
    "lon": -84.278524,
    "source": "openstreetmap",
    "fqhc": false
  },
  {
    "name": "Colerian Denture Clinic",
    "type": "dentist",
    "category": "Dental",
    "address": null,
    "phone": null,
    "website": null,
    "lat": 39.218939,
    "lon": -84.586071,
    "source": "openstreetmap",
    "fqhc": false
  },
  {
    "name": "Commonwealth Dental PSC: J. Robert Foote Jr, DMD",
    "type": "dentist",
    "category": "Dental",
    "address": "7348 U.S. 42 Florence KY",
    "phone": "+1-859-283-1911",
    "website": "http://yourcommonwealthdental.com/",
    "lat": 38.99742,
    "lon": -84.629745,
    "source": "openstreetmap",
    "fqhc": false
  },
  {
    "name": "Craig Dowiatt D.D.S. Family Dentistry",
    "type": "dentist",
    "category": "Dental",
    "address": null,
    "phone": null,
    "website": null,
    "lat": 39.285128,
    "lon": -84.316738,
    "source": "openstreetmap",
    "fqhc": false
  },
  {
    "name": "Cummings Dental",
    "type": "dentist",
    "category": "Dental",
    "address": null,
    "phone": null,
    "website": null,
    "lat": 39.037159,
    "lon": -84.559331,
    "source": "openstreetmap",
    "fqhc": false
  },
  {
    "name": "Cynthia Noll, DMD",
    "type": "dentist",
    "category": "Dental",
    "address": null,
    "phone": null,
    "website": null,
    "lat": 39.017409,
    "lon": -84.598101,
    "source": "openstreetmap",
    "fqhc": false
  },
  {
    "name": "Daniel J. Franz, DDS",
    "type": "dentist",
    "category": "Dental",
    "address": null,
    "phone": null,
    "website": null,
    "lat": 39.207462,
    "lon": -84.365785,
    "source": "openstreetmap",
    "fqhc": false
  },
  {
    "name": "Daniel J. Vogt, D.D.S.",
    "type": "dentist",
    "category": "Dental",
    "address": "Loveland Madeira Road Loveland OH",
    "phone": "+1-513-683-6009",
    "website": null,
    "lat": 39.262977,
    "lon": -84.268801,
    "source": "openstreetmap",
    "fqhc": false
  },
  {
    "name": "Dayton-Bellevue Family Dentistry",
    "type": "dentist",
    "category": "Dental",
    "address": null,
    "phone": "+1-859-261-0101",
    "website": null,
    "lat": 39.113564,
    "lon": -84.471841,
    "source": "openstreetmap",
    "fqhc": false
  },
  {
    "name": "Dental Center of Florence",
    "type": "dentist",
    "category": "Dental",
    "address": null,
    "phone": null,
    "website": null,
    "lat": 38.983292,
    "lon": -84.645294,
    "source": "openstreetmap",
    "fqhc": false
  },
  {
    "name": "DentalBLU",
    "type": "dentist",
    "category": "Dental",
    "address": "2600 Alexandria Pike Highland Heights KY",
    "phone": "+1-859-442-8200",
    "website": "https://www.dentalblu.com",
    "lat": 39.036331,
    "lon": -84.454462,
    "source": "openstreetmap",
    "fqhc": false
  },
  {
    "name": "Dentists at Hyde Park Plaza",
    "type": "dentist",
    "category": "Dental",
    "address": "3802 Paxton Avenue Cincinnati OH",
    "phone": null,
    "website": "https://www.dentistsathydeparkplaza.com/",
    "lat": 39.146129,
    "lon": -84.42891,
    "source": "openstreetmap",
    "fqhc": false
  },
  {
    "name": "Dentists of Eastgate",
    "type": "dentist",
    "category": "Dental",
    "address": "880 Eastgate North Drive Cincinnati OH",
    "phone": null,
    "website": null,
    "lat": 39.097024,
    "lon": -84.263524,
    "source": "openstreetmap",
    "fqhc": false
  },
  {
    "name": "Dever Family Dentistry",
    "type": "dentist",
    "category": "Dental",
    "address": null,
    "phone": null,
    "website": "https://www.deverdental.com/",
    "lat": 39.319663,
    "lon": -84.366328,
    "source": "openstreetmap",
    "fqhc": false
  },
  {
    "name": "Doctor Joel Golub, D.D.S.",
    "type": "dentist",
    "category": "Dental",
    "address": null,
    "phone": null,
    "website": null,
    "lat": 39.228682,
    "lon": -84.35415,
    "source": "openstreetmap",
    "fqhc": false
  },
  {
    "name": "Dr. Darlene Henry Dentist",
    "type": "dentist",
    "category": "Dental",
    "address": null,
    "phone": null,
    "website": null,
    "lat": 39.016294,
    "lon": -84.600705,
    "source": "openstreetmap",
    "fqhc": false
  },
  {
    "name": "Dr. Jeri Stull Orthodontics",
    "type": "dentist",
    "category": "Dental",
    "address": "637 Highland Avenue Fort Thomas KY",
    "phone": "+1-859-781-2662",
    "website": "https://www.orthosmileteam.com/",
    "lat": 39.076292,
    "lon": -84.461055,
    "source": "openstreetmap",
    "fqhc": false
  },
  {
    "name": "Drake T. Tollefson, D.D.S.",
    "type": "dentist",
    "category": "Dental",
    "address": "1120 Cottonwood Drive Loveland OH",
    "phone": "+1-513-683-8600",
    "website": "http://www.achievingdistinctivesmiles.com/",
    "lat": 39.255855,
    "lon": -84.295608,
    "source": "openstreetmap",
    "fqhc": false
  },
  {
    "name": "Evans Dale DDS",
    "type": "dentist",
    "category": "Dental",
    "address": null,
    "phone": null,
    "website": null,
    "lat": 39.026199,
    "lon": -84.535409,
    "source": "openstreetmap",
    "fqhc": false
  },
  {
    "name": "Family Dental Center",
    "type": "dentist",
    "category": "Dental",
    "address": null,
    "phone": null,
    "website": null,
    "lat": 39.334977,
    "lon": -84.52334,
    "source": "openstreetmap",
    "fqhc": false
  },
  {
    "name": "Family Dentistry of Loveland",
    "type": "dentist",
    "category": "Dental",
    "address": "910 Loveland Madeira Road Loveland OH",
    "phone": null,
    "website": "http://www.dentistinloveland.com/",
    "lat": 39.262807,
    "lon": -84.26979,
    "source": "openstreetmap",
    "fqhc": false
  },
  {
    "name": "Florence Modern Dentistry",
    "type": "dentist",
    "category": "Dental",
    "address": null,
    "phone": null,
    "website": null,
    "lat": 38.994256,
    "lon": -84.653883,
    "source": "openstreetmap",
    "fqhc": false
  },
  {
    "name": "Fred H Peck, DDS",
    "type": "dentist",
    "category": "Dental",
    "address": "8251 Cornell Road Cincinnati OH",
    "phone": "+1 513-621-7666",
    "website": "https://www.pecksmiles.com/",
    "lat": 39.264386,
    "lon": -84.338442,
    "source": "openstreetmap",
    "fqhc": false
  },
  {
    "name": "Gates Family Dentistry",
    "type": "dentist",
    "category": "Dental",
    "address": null,
    "phone": null,
    "website": "http://www.gatesfamilydentistry.com/",
    "lat": 39.305035,
    "lon": -84.28054,
    "source": "openstreetmap",
    "fqhc": false
  },
  {
    "name": "Gentle Dentistry",
    "type": "dentist",
    "category": "Dental",
    "address": "6417 Branch Hill-Guinea Road Loveland OH",
    "phone": null,
    "website": null,
    "lat": 39.23035,
    "lon": -84.259393,
    "source": "openstreetmap",
    "fqhc": false
  },
  {
    "name": "George E Guju, D.D.S.",
    "type": "dentist",
    "category": "Dental",
    "address": "27 Water Street Milford OH",
    "phone": null,
    "website": null,
    "lat": 39.172642,
    "lon": -84.297461,
    "source": "openstreetmap",
    "fqhc": false
  },
  {
    "name": "Gregory P. Davis, DDS",
    "type": "dentist",
    "category": "Dental",
    "address": "4834 Socialville-Foster Road Mason OH",
    "phone": "+1-513-459-1377",
    "website": "https://www.gregorydavisdds.com/",
    "lat": 39.323357,
    "lon": -84.309561,
    "source": "openstreetmap",
    "fqhc": false
  },
  {
    "name": "Hagen Dental Practice",
    "type": "dentist",
    "category": "Dental",
    "address": "4998 Glenway Avenue Cincinnati OH",
    "phone": "+1 513-251-5500",
    "website": "https://www.hagendds.com/",
    "lat": 39.121697,
    "lon": -84.601236,
    "source": "openstreetmap",
    "fqhc": false
  },
  {
    "name": "Hebron Advanced Dentistry",
    "type": "dentist",
    "category": "Dental",
    "address": null,
    "phone": null,
    "website": null,
    "lat": 39.066206,
    "lon": -84.700471,
    "source": "openstreetmap",
    "fqhc": false
  },
  {
    "name": "ImmediaDent",
    "type": "dentist",
    "category": "Dental",
    "address": null,
    "phone": null,
    "website": null,
    "lat": 39.222713,
    "lon": -84.586557,
    "source": "openstreetmap",
    "fqhc": false
  },
  {
    "name": "Ivy Dentistry",
    "type": "dentist",
    "category": "Dental",
    "address": "7201 Main Street Cincinnati OH",
    "phone": "+1-513-231-3990",
    "website": "https://ivydentistry.net/",
    "lat": 39.124341,
    "lon": -84.354429,
    "source": "openstreetmap",
    "fqhc": false
  },
  {
    "name": "Joel R. Koch, DDS",
    "type": "dentist",
    "category": "Dental",
    "address": null,
    "phone": null,
    "website": null,
    "lat": 39.310196,
    "lon": -84.381744,
    "source": "openstreetmap",
    "fqhc": false
  },
  {
    "name": "Johnson Orthodontics",
    "type": "dentist",
    "category": "Dental",
    "address": "11050 South Lebanon Road Loveland OH",
    "phone": "+1-513-683-8333",
    "website": "https://www.johnson-orthodontics.com/",
    "lat": 39.261627,
    "lon": -84.285299,
    "source": "openstreetmap",
    "fqhc": false
  },
  {
    "name": "Kings Dental",
    "type": "dentist",
    "category": "Dental",
    "address": "10777 Montgomery Road Montgomery OH",
    "phone": null,
    "website": "https://kings.dental",
    "lat": 39.25907,
    "lon": -84.341423,
    "source": "openstreetmap",
    "fqhc": false
  },
  {
    "name": "Lange Orthodontics",
    "type": "dentist",
    "category": "Dental",
    "address": null,
    "phone": null,
    "website": "https://www.teamlange.com/",
    "lat": 39.222105,
    "lon": -84.356976,
    "source": "openstreetmap",
    "fqhc": false
  },
  {
    "name": "Marie Callen DMD",
    "type": "dentist",
    "category": "Dental",
    "address": null,
    "phone": null,
    "website": "https://mariecallen.com/",
    "lat": 39.269584,
    "lon": -84.327353,
    "source": "openstreetmap",
    "fqhc": false
  },
  {
    "name": "Mark E. Gerome Family Dentistry",
    "type": "dentist",
    "category": "Dental",
    "address": "6378 Branch Hill-Guinea Road Loveland OH",
    "phone": null,
    "website": "https://www.geromefamilydentistry.com/",
    "lat": 39.22825,
    "lon": -84.254772,
    "source": "openstreetmap",
    "fqhc": false
  },
  {
    "name": "Michael Kreimer, DDS",
    "type": "dentist",
    "category": "Dental",
    "address": null,
    "phone": null,
    "website": "https://www.michaelkreimerdds.com/",
    "lat": 39.248626,
    "lon": -84.296419,
    "source": "openstreetmap",
    "fqhc": false
  },
  {
    "name": "Montenson Family Dental",
    "type": "dentist",
    "category": "Dental",
    "address": null,
    "phone": null,
    "website": null,
    "lat": 39.006321,
    "lon": -84.629779,
    "source": "openstreetmap",
    "fqhc": false
  },
  {
    "name": "Monteson Family Dental",
    "type": "dentist",
    "category": "Dental",
    "address": null,
    "phone": null,
    "website": null,
    "lat": 39.054593,
    "lon": -84.547261,
    "source": "openstreetmap",
    "fqhc": false
  },
  {
    "name": "Mt. Lookout Dentistry",
    "type": "dentist",
    "category": "Dental",
    "address": "3197 Linwood Avenue Cincinnati OH",
    "phone": "+1 513 871 2852",
    "website": "https://www.mtlookoutdentistry.com/",
    "lat": 39.128654,
    "lon": -84.430703,
    "source": "openstreetmap",
    "fqhc": false
  },
  {
    "name": "NKY Oral & Maxillofacial Surgery Associates",
    "type": "dentist",
    "category": "Dental",
    "address": "4465 Alexandria Pike Cold Spring KY",
    "phone": "+1-859-441-1111",
    "website": "https://oralsurgerynky.com/contact/",
    "lat": 39.015888,
    "lon": -84.433223,
    "source": "openstreetmap",
    "fqhc": false
  },
  {
    "name": "Northeast Orthodontic Specialists",
    "type": "dentist",
    "category": "Dental",
    "address": "9380 Kenwood Road b OH",
    "phone": "+15137934770",
    "website": "https://nosorthodontics.com/",
    "lat": 39.227883,
    "lon": -84.37698,
    "source": "openstreetmap",
    "fqhc": false
  },
  {
    "name": "Oral Surgery & Dental Implant",
    "type": "dentist",
    "category": "Dental",
    "address": null,
    "phone": null,
    "website": null,
    "lat": 39.136916,
    "lon": -84.613557,
    "source": "openstreetmap",
    "fqhc": false
  },
  {
    "name": "Overton Street Dental",
    "type": "dentist",
    "category": "Dental",
    "address": null,
    "phone": null,
    "website": null,
    "lat": 39.09241,
    "lon": -84.488365,
    "source": "openstreetmap",
    "fqhc": false
  },
  {
    "name": "Pacific Dental",
    "type": "dentist",
    "category": "Dental",
    "address": null,
    "phone": null,
    "website": null,
    "lat": 39.318987,
    "lon": -84.313639,
    "source": "openstreetmap",
    "fqhc": false
  },
  {
    "name": "Queen City Pediatric Dentistry",
    "type": "dentist",
    "category": "Dental",
    "address": "919 Ohio Pike Cincinnati OH",
    "phone": null,
    "website": "https://queencitykidsdentist.com/",
    "lat": 39.060256,
    "lon": -84.270145,
    "source": "openstreetmap",
    "fqhc": false
  },
  {
    "name": "Sea of Smiles Pediatric Dentistry",
    "type": "dentist",
    "category": "Dental",
    "address": "1319 Nagel Road Cincinnati OH",
    "phone": null,
    "website": "https://seaofsmilesdds.com/",
    "lat": 39.075588,
    "lon": -84.332615,
    "source": "openstreetmap",
    "fqhc": false
  },
  {
    "name": "Seven Star Dental",
    "type": "dentist",
    "category": "Dental",
    "address": "7 West 7th Street Cincinnati OH",
    "phone": "+1-513-540-3565",
    "website": "https://www.sevenstardental.com/",
    "lat": 39.103424,
    "lon": -84.514549,
    "source": "openstreetmap",
    "fqhc": false
  },
  {
    "name": "Shearer Dentistry",
    "type": "dentist",
    "category": "Dental",
    "address": null,
    "phone": null,
    "website": null,
    "lat": 39.017299,
    "lon": -84.635715,
    "source": "openstreetmap",
    "fqhc": false
  },
  {
    "name": "Stone Creek Family Dental",
    "type": "dentist",
    "category": "Dental",
    "address": null,
    "phone": null,
    "website": null,
    "lat": 39.252547,
    "lon": -84.600398,
    "source": "openstreetmap",
    "fqhc": false
  },
  {
    "name": "Tiger Dentist",
    "type": "dentist",
    "category": "Dental",
    "address": null,
    "phone": null,
    "website": null,
    "lat": 39.14959,
    "lon": -84.628433,
    "source": "openstreetmap",
    "fqhc": false
  },
  {
    "name": "Total Dentistry",
    "type": "dentist",
    "category": "Dental",
    "address": null,
    "phone": null,
    "website": null,
    "lat": 39.207533,
    "lon": -84.582958,
    "source": "openstreetmap",
    "fqhc": false
  },
  {
    "name": "Tristate Dental Care",
    "type": "dentist",
    "category": "Dental",
    "address": null,
    "phone": null,
    "website": null,
    "lat": 39.062673,
    "lon": -84.537783,
    "source": "openstreetmap",
    "fqhc": false
  },
  {
    "name": "Urgent Dental",
    "type": "dentist",
    "category": "Dental",
    "address": null,
    "phone": null,
    "website": null,
    "lat": 39.319674,
    "lon": -84.424493,
    "source": "openstreetmap",
    "fqhc": false
  },
  {
    "name": "Vance Dentistry",
    "type": "dentist",
    "category": "Dental",
    "address": "912 Business State Route 28 Milford OH",
    "phone": null,
    "website": null,
    "lat": 39.191478,
    "lon": -84.253773,
    "source": "openstreetmap",
    "fqhc": false
  },
  {
    "name": "Velle Dental",
    "type": "dentist",
    "category": "Dental",
    "address": null,
    "phone": null,
    "website": null,
    "lat": 39.200776,
    "lon": -84.600198,
    "source": "openstreetmap",
    "fqhc": false
  },
  {
    "name": "Williams Dental",
    "type": "dentist",
    "category": "Dental",
    "address": "860 Ohio Pike Cincinnati OH",
    "phone": null,
    "website": "https://www.williamsdentalofcincinnati.com/",
    "lat": 39.063624,
    "lon": -84.275801,
    "source": "openstreetmap",
    "fqhc": false
  },
  {
    "name": "Wright Dental Center",
    "type": "dentist",
    "category": "Dental",
    "address": "3760 Alexandria Pike Cold Spring KY",
    "phone": null,
    "website": "https://www.wrightdentalcenter.com",
    "lat": 39.025505,
    "lon": -84.447012,
    "source": "openstreetmap",
    "fqhc": false
  },
  {
    "name": "Wright Jacobs Dental",
    "type": "dentist",
    "category": "Dental",
    "address": null,
    "phone": null,
    "website": null,
    "lat": 39.08402,
    "lon": -84.711534,
    "source": "openstreetmap",
    "fqhc": false
  },
  {
    "name": "Anderson Hospital",
    "type": "hospital",
    "category": "Hospital",
    "address": "7500 State Road Cincinnati",
    "phone": "+1 513 624 4500",
    "website": "https://www.mercy.com/cincinnati/locations/hospitals/mercy-health-anderson-hospital",
    "lat": 39.085901,
    "lon": -84.348565,
    "source": "openstreetmap",
    "fqhc": false
  },
  {
    "name": "Assurance Health Cincinnati",
    "type": "hospital",
    "category": "Hospital",
    "address": "11690 Grooms Road Cincinnati OH",
    "phone": "+1 513 469 7800",
    "website": "http://assurancehealthsystem.com/locations/cincinnati/",
    "lat": 39.281929,
    "lon": -84.367552,
    "source": "openstreetmap",
    "fqhc": false
  },
  {
    "name": "Beckett Springs",
    "type": "hospital",
    "category": "Hospital",
    "address": "8614 Shepherd Farm Drive West Chester OH",
    "phone": "+1 513 942 9500",
    "website": "https://beckettsprings.com",
    "lat": 39.343458,
    "lon": -84.455684,
    "source": "openstreetmap",
    "fqhc": false
  },
  {
    "name": "Bethesda North Hospital",
    "type": "hospital",
    "category": "Hospital",
    "address": "10500 Montgomery Road Cincinnati",
    "phone": "+1 513 865 1111",
    "website": "https://www.trihealth.com/hospitals-and-practices/bethesda-north-hospital/",
    "lat": 39.251401,
    "lon": -84.340371,
    "source": "openstreetmap",
    "fqhc": false
  },
  {
    "name": "Cincinnati Children\u2019s Hospital College Hill Campus",
    "type": "hospital",
    "category": "Hospital",
    "address": "5642 Hamilton Avenue Cincinnati OH",
    "phone": null,
    "website": null,
    "lat": 39.193208,
    "lon": -84.543544,
    "source": "openstreetmap",
    "fqhc": false
  },